{
    "municipalities": [
        {
            "name": "ゴジラ岩（知床）",
            "description": "斜里町ウトロにあるゴジラに似た岩。",
            "prefecture": "北海道",
            "latitude": 44.072500,
            "longitude": 144.991667
        },
        {
            "name": "ローソク岩",
            "description": "余市町の沖合にある高さ46mの岩。",
            "prefecture": "北海道",
            "latitude": 43.233333,
            "longitude": 140.766667
        },
        {
            "name": "親子岩",
            "description": "様似町にある3つの岩。",
            "prefecture": "北海道",
            "latitude": 42.116667,
            "longitude": 142.933333
        },
        {
            "name": "桃岩",
            "description": "礼文島の桃の形をした巨大な岩。",
            "prefecture": "北海道",
            "latitude": 45.300000,
            "longitude": 141.033333
        },
        {
            "name": "猫岩",
            "description": "礼文島にある猫のような岩。",
            "prefecture": "北海道",
            "latitude": 45.300000,
            "longitude": 141.016667
        },
        {
            "name": "オロンコ岩",
            "description": "知床ウトロ港にある巨岩。",
            "prefecture": "北海道",
            "latitude": 44.066667,
            "longitude": 144.983333
        },
        {
            "name": "セタカムイ岩",
            "description": "犬が遠吠えしているように見える岩。",
            "prefecture": "北海道",
            "latitude": 43.233333,
            "longitude": 140.683333
        },
        {
            "name": "窓岩",
            "description": "曽々木海岸。",
            "prefecture": "石川県",
            "latitude": 37.450000,
            "longitude": 137.083333
        },
        {
            "name": "鍋釣岩",
            "description": "奥尻島のシンボル。",
            "prefecture": "北海道",
            "latitude": 42.166667,
            "longitude": 139.450000
        },
        {
            "name": "仏ヶ浦",
            "description": "白緑色の奇岩が立ち並ぶ景勝地。",
            "prefecture": "青森県",
            "latitude": 41.316667,
            "longitude": 140.800000
        },
        {
            "name": "がんかけ岩",
            "description": "佐井村にある縁結びの岩。",
            "prefecture": "青森県",
            "latitude": 41.416667,
            "longitude": 140.850000
        },
        {
            "name": "三王岩",
            "description": "高さ50mの男岩など3つの巨岩。",
            "prefecture": "岩手県",
            "latitude": 39.633333,
            "longitude": 141.966667
        },
        {
            "name": "ローソク岩（岩手）",
            "description": "宮古市にある。",
            "prefecture": "岩手県",
            "latitude": 39.633333,
            "longitude": 141.983333
        },
        {
            "name": "かぶと岩",
            "description": "久慈市。",
            "prefecture": "岩手県",
            "latitude": 40.183333,
            "longitude": 141.816667
        },
        {
            "name": "潮瀬崎（ゴジラ岩）",
            "description": "男鹿半島にあるゴジラ岩。",
            "prefecture": "秋田県",
            "latitude": 39.850000,
            "longitude": 139.750000
        },
        {
            "name": "舞台島",
            "description": "男鹿半島。",
            "prefecture": "秋田県",
            "latitude": 39.866667,
            "longitude": 139.700000
        },
        {
            "name": "烏帽子岩",
            "description": "飛島にある。",
            "prefecture": "山形県",
            "latitude": 39.183333,
            "longitude": 139.533333
        },
        {
            "name": "立石寺（山寺）の奇岩",
            "description": "凝灰岩の岩壁。",
            "prefecture": "山形県",
            "latitude": 38.316667,
            "longitude": 140.433333
        },
        {
            "name": "きのこ岩",
            "description": "浄土平にある。",
            "prefecture": "福島県",
            "latitude": 37.733333,
            "longitude": 140.250000
        },
        {
            "name": "二ッ島",
            "description": "北茨城市の海にある2つの岩。",
            "prefecture": "茨城県",
            "latitude": 36.816667,
            "longitude": 140.766667
        },
        {
            "name": "神磯の鳥居（大洗）",
            "description": "岩礁の上に鳥居が立つ。",
            "prefecture": "茨城県",
            "latitude": 36.316667,
            "longitude": 140.583333
        },
        {
            "name": "名洗の屏風ヶ浦",
            "description": "海食崖。（海岸カテゴリだが奇岩要素あり）",
            "prefecture": "千葉県",
            "latitude": 35.700000,
            "longitude": 140.850000
        },
        {
            "name": "鋸山（地獄のぞき）",
            "description": "採石場跡の絶壁。",
            "prefecture": "千葉県",
            "latitude": 35.166667,
            "longitude": 139.833333
        },
        {
            "name": "城ヶ島・馬の背洞門",
            "description": "海蝕洞門。",
            "prefecture": "神奈川県",
            "latitude": 35.133333,
            "longitude": 139.616667
        },
        {
            "name": "三ツ石（真鶴岬）",
            "description": "注連縄が張られた岩。",
            "prefecture": "神奈川県",
            "latitude": 35.133333,
            "longitude": 139.150000
        },
        {
            "name": "烏帽子岩（姥島）",
            "description": "茅ヶ崎のシンボル。",
            "prefecture": "神奈川県",
            "latitude": 35.316667,
            "longitude": 139.400000
        },
        {
            "name": "神戸岩",
            "description": "東京都の天然記念物。",
            "prefecture": "東京都",
            "latitude": 35.733333,
            "longitude": 139.116667
        },
        {
            "name": "見附島（軍艦島）",
            "description": "能登のシンボル。軍艦のような形。",
            "prefecture": "石川県",
            "latitude": 37.383333,
            "longitude": 137.233333
        },
        {
            "name": "巌門",
            "description": "能登金剛の洞門。",
            "prefecture": "石川県",
            "latitude": 37.066667,
            "longitude": 136.716667
        },
        {
            "name": "ゴジラ岩",
            "description": "珠洲市にある。",
            "prefecture": "石川県",
            "latitude": 37.483333,
            "longitude": 137.266667
        },
        {
            "name": "機具岩（能登二見）",
            "description": "夫婦岩。",
            "prefecture": "石川県",
            "latitude": 37.083333,
            "longitude": 136.700000
        },
        {
            "name": "東尋坊",
            "description": "輝石安山岩の柱状節理。",
            "prefecture": "福井県",
            "latitude": 36.233333,
            "longitude": 136.133333
        },
        {
            "name": "呼鳥門",
            "description": "越前海岸にある天然トンネル。",
            "prefecture": "福井県",
            "latitude": 35.983333,
            "longitude": 136.000000
        },
        {
            "name": "鉾島",
            "description": "柱状節理の島。",
            "prefecture": "福井県",
            "latitude": 36.100000,
            "longitude": 136.033333
        },
        {
            "name": "鬼岩公園",
            "description": "巨岩怪石が積み重なる。",
            "prefecture": "岐阜県",
            "latitude": 35.400000,
            "longitude": 137.200000
        },
        {
            "name": "天手力男神（戸隠）",
            "description": "戸隠山。険しい岩峰。",
            "prefecture": "長野県",
            "latitude": 36.783333,
            "longitude": 138.050000
        },
        {
            "name": "燕岩",
            "description": "佐久市。",
            "prefecture": "長野県",
            "latitude": 36.216667,
            "longitude": 138.566667
        },
        {
            "name": "千貫門",
            "description": "烏帽子山の海食洞。",
            "prefecture": "静岡県",
            "latitude": 34.700000,
            "longitude": 138.750000
        },
        {
            "name": "屏風岩",
            "description": "京丹後市。",
            "prefecture": "京都府",
            "latitude": 35.741667,
            "longitude": 135.116667
        },
        {
            "name": "天窓洞",
            "description": "堂ヶ島。天井が落ちた海蝕洞。",
            "prefecture": "静岡県",
            "latitude": 34.783333,
            "longitude": 138.766667
        },
        {
            "name": "三四郎島",
            "description": "トンボロ現象。",
            "prefecture": "静岡県",
            "latitude": 34.783333,
            "longitude": 138.760000
        },
        {
            "name": "乳岩峡",
            "description": "凝灰岩の巨岩。",
            "prefecture": "愛知県",
            "latitude": 35.033333,
            "longitude": 137.666667
        },
        {
            "name": "日出の石門",
            "description": "伊良湖岬。",
            "prefecture": "愛知県",
            "latitude": 34.583333,
            "longitude": 137.033333
        },
        {
            "name": "鬼ヶ城",
            "description": "海食洞と岩壁。",
            "prefecture": "三重県",
            "latitude": 33.883333,
            "longitude": 136.116667
        },
        {
            "name": "獅子岩",
            "description": "獅子が海に向かって吠えているような岩。",
            "prefecture": "三重県",
            "latitude": 33.883333,
            "longitude": 136.100000
        },
        {
            "name": "夫婦岩",
            "description": "二見興玉神社の御神体。",
            "prefecture": "三重県",
            "latitude": 34.508333,
            "longitude": 136.788889
        },
        {
            "name": "大王岩",
            "description": "佐渡。",
            "prefecture": "新潟県",
            "latitude": 38.316667,
            "longitude": 138.516667
        },
        {
            "name": "橋杭岩",
            "description": "直線状に岩が並ぶ奇観。国の天然記念物。",
            "prefecture": "和歌山県",
            "latitude": 33.483333,
            "longitude": 135.783333
        },
        {
            "name": "円月島",
            "description": "中央に丸い穴が開いた島。",
            "prefecture": "和歌山県",
            "latitude": 33.688889,
            "longitude": 135.338889
        },
        {
            "name": "千畳敷",
            "description": "広大な岩畳。",
            "prefecture": "和歌山県",
            "latitude": 33.666667,
            "longitude": 135.333333
        },
        {
            "name": "三段壁",
            "description": "大岸壁と洞窟。",
            "prefecture": "和歌山県",
            "latitude": 33.666667,
            "longitude": 135.333333
        },
        {
            "name": "古座川の一枚岩",
            "description": "高さ100m、幅500mの巨大な岩。",
            "prefecture": "和歌山県",
            "latitude": 33.566667,
            "longitude": 135.800000
        },
        {
            "name": "虫喰岩",
            "description": "虫に食われたような穴が無数にある岩。",
            "prefecture": "和歌山県",
            "latitude": 33.550000,
            "longitude": 135.816667
        },
        {
            "name": "立岩",
            "description": "高さ20mの巨大な柱状節理の一枚岩。",
            "prefecture": "京都府",
            "latitude": 35.741667,
            "longitude": 135.100000
        },
        {
            "name": "玄武洞",
            "description": "柱状節理が見事な洞窟。",
            "prefecture": "兵庫県",
            "latitude": 35.583333,
            "longitude": 134.800000
        },
        {
            "name": "はさかり岩",
            "description": "落ちそうで落ちない岩。",
            "prefecture": "兵庫県",
            "latitude": 35.666667,
            "longitude": 134.700000
        },
        {
            "name": "蛙岩",
            "description": "香住海岸。",
            "prefecture": "兵庫県",
            "latitude": 35.650000,
            "longitude": 134.616667
        },
        {
            "name": "上立神岩",
            "description": "沼島。",
            "prefecture": "兵庫県",
            "latitude": 34.166667,
            "longitude": 134.833333
        },
        {
            "name": "ローソク島",
            "description": "隠岐。夕日が重なるとローソクのように見える。",
            "prefecture": "島根県",
            "latitude": 36.283333,
            "longitude": 133.283333
        },
        {
            "name": "鬼の舌震",
            "description": "巨岩が積み重なる渓谷。",
            "prefecture": "島根県",
            "latitude": 35.183333,
            "longitude": 133.050000
        },
        {
            "name": "立久恵峡",
            "description": "奇岩柱がそそり立つ。",
            "prefecture": "島根県",
            "latitude": 35.316667,
            "longitude": 132.733333
        },
        {
            "name": "浦富海岸（千貫松島など）",
            "description": "海食地形。",
            "prefecture": "鳥取県",
            "latitude": 35.583333,
            "longitude": 134.300000
        },
        {
            "name": "白兎海岸（淤岐ノ島）",
            "description": "ウサギが渡ったとされる島。",
            "prefecture": "鳥取県",
            "latitude": 35.550000,
            "longitude": 134.133333
        },
        {
            "name": "帝釈峡（雄橋）",
            "description": "世界三大天然橋の一つ。",
            "prefecture": "広島県",
            "latitude": 34.850000,
            "longitude": 133.216667
        },
        {
            "name": "青海島（海上アルプス）",
            "description": "洞門や石柱などの奇岩群。",
            "prefecture": "山口県",
            "latitude": 34.416667,
            "longitude": 131.200000
        },
        {
            "name": "須佐ホルンフェルス",
            "description": "畳岩。白黒のストライプ。",
            "prefecture": "山口県",
            "latitude": 34.633333,
            "longitude": 131.600000
        },
        {
            "name": "大歩危・小歩危",
            "description": "結晶片岩の奇岩。",
            "prefecture": "徳島県",
            "latitude": 33.883333,
            "longitude": 133.766667
        },
        {
            "name": "御厨人窟",
            "description": "室戸岬にある海蝕洞。",
            "prefecture": "高知県",
            "latitude": 33.250000,
            "longitude": 134.183333
        },
        {
            "name": "竜串・見残し海岸",
            "description": "奇岩の宝庫。",
            "prefecture": "高知県",
            "latitude": 32.783333,
            "longitude": 132.866667
        },
        {
            "name": "猿岩",
            "description": "壱岐島。猿の横顔に見える。",
            "prefecture": "長崎県",
            "latitude": 33.750000,
            "longitude": 129.683333
        },
        {
            "name": "鬼の洗濯板",
            "description": "青島の周囲に広がる波状岩。",
            "prefecture": "宮崎県",
            "latitude": 31.800000,
            "longitude": 131.483333
        },
        {
            "name": "馬ヶ背",
            "description": "日本一の柱状節理。",
            "prefecture": "宮崎県",
            "latitude": 32.433333,
            "longitude": 131.683333
        },
        {
            "name": "クルスの海",
            "description": "岩の裂け目が十字に見える。",
            "prefecture": "宮崎県",
            "latitude": 32.533333,
            "longitude": 131.683333
        },
        {
            "name": "高千穂峡（仙人の屏風岩）",
            "description": "柱状節理の絶壁。",
            "prefecture": "宮崎県",
            "latitude": 32.700000,
            "longitude": 131.300000
        },
        {
            "name": "陰陽石",
            "description": "小林市にある奇岩。",
            "prefecture": "宮崎県",
            "latitude": 32.016667,
            "longitude": 131.016667
        },
        {
            "name": "立神岩",
            "description": "与那国島。",
            "prefecture": "沖縄県",
            "latitude": 24.450000,
            "longitude": 123.016667
        },
        {
            "name": "ナポレオン岩",
            "description": "下甑島。",
            "prefecture": "鹿児島県",
            "latitude": 31.633333,
            "longitude": 129.716667
        },
        {
            "name": "犬の白浜（メガネ岩）",
            "description": "沖永良部島。",
            "prefecture": "鹿児島県",
            "latitude": 27.366667,
            "longitude": 128.600000
        },
        {
            "name": "眼鏡岩",
            "description": "佐世保市。",
            "prefecture": "長崎県",
            "latitude": 33.183333,
            "longitude": 129.700000
        },
        {
            "name": "妙見浦（象岩）",
            "description": "天草西海岸の景勝地。象の形をした岩。",
            "prefecture": "熊本県",
            "latitude": 32.416667,
            "longitude": 130.016667
        },
        {
            "name": "おっぱい岩",
            "description": "苓北町。",
            "prefecture": "熊本県",
            "latitude": 32.516667,
            "longitude": 130.033333
        },
        {
            "name": "免の石",
            "description": "南阿蘇。落ちない石だったが地震で落ちた。",
            "prefecture": "熊本県",
            "latitude": 32.833333,
            "longitude": 131.050000
        },
        {
            "name": "羅漢寺（耶馬渓）",
            "description": "岩山に張り付く寺。",
            "prefecture": "大分県",
            "latitude": 33.433333,
            "longitude": 131.116667
        },
        {
            "name": "競秀峰",
            "description": "青の洞門の上にある岩峰群。",
            "prefecture": "大分県",
            "latitude": 33.500000,
            "longitude": 131.133333
        },
        {
            "name": "伐株山",
            "description": "メサ（卓状台地）。",
            "prefecture": "大分県",
            "latitude": 33.283333,
            "longitude": 131.150000
        },
        {
            "name": "ハート岩",
            "description": "八女市。日向神峡。",
            "prefecture": "福岡県",
            "latitude": 33.150000,
            "longitude": 130.733333
        },
        {
            "name": "七ツ釜",
            "description": "海蝕洞。",
            "prefecture": "佐賀県",
            "latitude": 33.550000,
            "longitude": 129.966667
        },
        {
            "name": "万座毛",
            "description": "象の鼻の岩。（海岸・岬カテゴリで既出だが奇岩としても）",
            "prefecture": "沖縄県",
            "latitude": 26.500000,
            "longitude": 127.850000
        },
        {
            "name": "ハートロック",
            "description": "古宇利島。",
            "prefecture": "沖縄県",
            "latitude": 26.716667,
            "longitude": 128.016667
        },
        {
            "name": "大石林山",
            "description": "熱帯カルストの奇岩群。",
            "prefecture": "沖縄県",
            "latitude": 26.850000,
            "longitude": 128.250000
        },
        {
            "name": "畳石",
            "description": "久米島。亀の甲羅のような岩。",
            "prefecture": "沖縄県",
            "latitude": 26.333333,
            "longitude": 126.816667
        },
        {
            "name": "ゴリラチョップ",
            "description": "本部町。ゴリラがチョップしている岩。",
            "prefecture": "沖縄県",
            "latitude": 26.633333,
            "longitude": 127.883333
        },
        {
            "name": "人面岩",
            "description": "与那国島。",
            "prefecture": "沖縄県",
            "latitude": 24.450000,
            "longitude": 123.000000
        },
        {
            "name": "続石",
            "description": "遠野市。落ちそうで落ちない石。",
            "prefecture": "岩手県",
            "latitude": 39.316667,
            "longitude": 141.533333
        },
        {
            "name": "釣石神社",
            "description": "落ちそうで落ちない岩。",
            "prefecture": "宮城県",
            "latitude": 38.516667,
            "longitude": 141.416667
        },
        {
            "name": "千貫松島",
            "description": "浦富海岸。",
            "prefecture": "鳥取県",
            "latitude": 35.583333,
            "longitude": 134.300000
        },
        {
            "name": "めがね岩",
            "description": "南房総市。",
            "prefecture": "千葉県",
            "latitude": 35.083333,
            "longitude": 139.833333
        },
        {
            "name": "石門",
            "description": "母島。",
            "prefecture": "東京都",
            "latitude": 26.633333,
            "longitude": 142.150000
        },
        {
            "name": "重ね岩",
            "description": "小豆島。落ちそうで落ちない。",
            "prefecture": "香川県",
            "latitude": 34.516667,
            "longitude": 134.250000
        },
        {
            "name": "白山洞門",
            "description": "日本最大級の花崗岩洞門。",
            "prefecture": "高知県",
            "latitude": 32.733333,
            "longitude": 133.016667
        }
    ]
}