{
    "municipalities": [
        {
            "name": "豊平峡温泉",
            "desc": "源泉100%かけ流しの露天風呂と、名物の本格インドカレーが人気の日帰り温泉。",
            "pref": "北海道",
            "lat": 42.934444,
            "lon": 141.221389
        },
        {
            "name": "吹上温泉保養センター 白銀荘",
            "desc": "十勝岳連峰の中腹にあり、登山客やサウナ愛好家に絶大な人気を誇る温泉施設。",
            "pref": "北海道",
            "lat": 43.430833,
            "lon": 142.646944
        },
        {
            "name": "岬の湯しゃこたん",
            "desc": "積丹半島の高台にあり、日本海に沈む夕日を一望できる絶景露天風呂。",
            "pref": "北海道",
            "lat": 43.296389,
            "lon": 140.573611
        },
        {
            "name": "黄金崎不老ふ死温泉",
            "desc": "波打ち際にあるひょうたん型の露天風呂が有名。日本海の荒波を間近に感じる。",
            "pref": "青森県",
            "lat": 40.640278,
            "lon": 139.866111
        },
        {
            "name": "酸ヶ湯温泉 ヒバ千人風呂",
            "desc": "総ヒバ造りの巨大な混浴大浴場。湯治場の雰囲気を色濃く残す名湯。",
            "pref": "青森県",
            "lat": 40.655833,
            "lon": 140.852500
        },
        {
            "name": "古牧温泉 青森屋「浮湯」",
            "desc": "池に浮かぶような露天風呂「浮湯」が幻想的。青森の文化を体感できる施設。",
            "pref": "青森県",
            "lat": 40.672222,
            "lon": 141.405556
        },
        {
            "name": "鉛温泉 藤三旅館「白猿の湯」",
            "desc": "立って入る深さ1.25mの天然岩風呂で有名。宮沢賢治も愛した歴史ある湯。",
            "pref": "岩手県",
            "lat": 39.467778,
            "lon": 141.018056
        },
        {
            "name": "松川温泉 峡雲荘",
            "desc": "乳白色の硫黄泉が楽しめる。地熱発電所近くの秘湯で、冬は雪見風呂が最高。",
            "pref": "岩手県",
            "lat": 39.861111,
            "lon": 140.933333
        },
        {
            "name": "網張温泉館 薬師の湯",
            "desc": "網張温泉スキー場に隣接。白濁した湯と岩手山の自然を楽しめる日帰り施設。",
            "pref": "岩手県",
            "lat": 39.814722,
            "lon": 140.985278
        },
        {
            "name": "鳴子温泉 早稲田桟敷湯",
            "desc": "戦後の学生が掘削に関わった共同浴場。モダンな建築デザインが特徴。",
            "pref": "宮城県",
            "lat": 38.742500,
            "lon": 140.716389
        },
        {
            "name": "アクアイグニス仙台 藤塚の湯",
            "desc": "震災復興のシンボル的エリアにある、スタイリッシュな温泉施設。",
            "pref": "宮城県",
            "lat": 38.203611,
            "lon": 140.963889
        },
        {
            "name": "吹上温泉 峯雲閣",
            "desc": "滝壺がそのまま露天風呂になっているダイナミックな「仙人風呂」が有名。",
            "pref": "宮城県",
            "lat": 38.799722,
            "lon": 140.722500
        },
        {
            "name": "乳頭温泉郷 鶴の湯温泉",
            "desc": "乳頭温泉郷で最も古い歴史を持つ。茅葺き屋根の長屋と白濁の混浴露天風呂が象徴的。",
            "pref": "秋田県",
            "lat": 39.800556,
            "lon": 140.767222
        },
        {
            "name": "玉川温泉 自然研究路（岩盤浴）",
            "desc": "強酸性の湯と、地熱を利用した天然の岩盤浴を目当てに多くの湯治客が訪れる。",
            "pref": "秋田県",
            "lat": 39.961667,
            "lon": 140.718889
        },
        {
            "name": "後生掛温泉",
            "desc": "「馬で来て足駄で帰る」と言われる効能高き名湯。箱蒸し風呂など多彩な風呂がある。",
            "pref": "秋田県",
            "lat": 39.987500,
            "lon": 140.783611
        },
        {
            "name": "蔵王温泉大露天風呂",
            "desc": "強酸性の硫黄泉が湧く、川沿いの野趣あふれる巨大露天風呂。冬期は閉鎖。",
            "pref": "山形県",
            "lat": 38.163333,
            "lon": 140.403056
        },
        {
            "name": "銀山温泉 共同浴場 しろがね湯",
            "desc": "隈研吾氏が設計したモダンな共同浴場。大正ロマンの街並みに溶け込んでいる。",
            "pref": "山形県",
            "lat": 38.569444,
            "lon": 140.531111
        },
        {
            "name": "碁点温泉 クアハウス碁点",
            "desc": "最上川を眺めながら入浴できる露天風呂（水着着用ゾーンあり）が特徴。",
            "pref": "山形県",
            "lat": 38.396667,
            "lon": 140.354167
        },
        {
            "name": "スパリゾートハワイアンズ",
            "desc": "映画『フラガール』の舞台。巨大なプールと温泉、ショーが楽しめる温泉テーマパーク。",
            "pref": "福島県",
            "lat": 36.985833,
            "lon": 140.835833
        },
        {
            "name": "飯坂温泉 鯖湖湯",
            "desc": "日本最古の木造建築共同浴場を再現した、飯坂温泉のシンボル。",
            "pref": "福島県",
            "lat": 37.834444,
            "lon": 140.455278
        },
        {
            "name": "野地温泉ホテル（日帰り入浴）",
            "desc": "標高1200mに位置し、乳白色の硫黄泉が楽しめる「千寿の湯」などが人気。",
            "pref": "福島県",
            "lat": 37.669722,
            "lon": 140.264722
        },
        {
            "name": "潮騒の湯",
            "desc": "大洗海岸に面し、太平洋を一望できる露天風呂と新鮮な海鮮料理が自慢。",
            "pref": "茨城県",
            "lat": 36.304444,
            "lon": 140.574167
        },
        {
            "name": "筑波山温泉 つくばの湯",
            "desc": "筑波山の中腹にあり、関東平野を見渡せる絶景露天風呂が楽しめる。",
            "pref": "茨城県",
            "lat": 36.216667,
            "lon": 140.106667
        },
        {
            "name": "やさと温泉 ゆりの郷",
            "desc": "筑波山の麓にある、地元の木材をふんだんに使った温かみのある温泉施設。",
            "pref": "茨城県",
            "lat": 36.257500,
            "lon": 140.165278
        },
        {
            "name": "那須温泉 鹿の湯",
            "desc": "開湯1300年の歴史を誇る共同浴場。白濁した硫黄泉と独特の入浴法で知られる。",
            "pref": "栃木県",
            "lat": 37.098889,
            "lon": 139.996111
        },
        {
            "name": "鬼怒川温泉 湯処すず風",
            "desc": "鬼怒川の渓谷を見下ろす絶景露天風呂が人気の日帰り温泉施設。",
            "pref": "栃木県",
            "lat": 36.837778,
            "lon": 139.718056
        },
        {
            "name": "奥日光湯元温泉 温泉寺",
            "desc": "お寺の中に温泉がある珍しい施設。薬師湯と呼ばれる硫黄泉。",
            "pref": "栃木県",
            "lat": 36.803333,
            "lon": 139.426667
        },
        {
            "name": "草津温泉 大滝乃湯",
            "desc": "温度の異なる湯船を巡る「合わせ湯」が体験できる、草津温泉の代表的な日帰り施設。",
            "pref": "群馬県",
            "lat": 36.621944,
            "lon": 138.601944
        },
        {
            "name": "西の河原露天風呂",
            "desc": "草津温泉の西の河原公園内にある、圧倒的な広さを誇る大露天風呂。",
            "pref": "群馬県",
            "lat": 36.624722,
            "lon": 138.591389
        },
        {
            "name": "宝川温泉 汪泉閣",
            "desc": "映画のロケ地にもなった、渓流沿いの巨大な露天風呂が有名な温泉（日帰り可）。",
            "pref": "群馬県",
            "lat": 36.848056,
            "lon": 139.049167
        },
        {
            "name": "西武秩父駅前温泉 祭の湯",
            "desc": "西武秩父駅に直結。秩父の祭りをコンセプトにした複合温泉施設。",
            "pref": "埼玉県",
            "lat": 35.990278,
            "lon": 139.083333
        },
        {
            "name": "杉戸天然温泉 雅楽の湯",
            "desc": "源泉かけ流しの露天風呂やビュッフェが評判で、人気ランキング常連のスーパー銭湯。",
            "pref": "埼玉県",
            "lat": 36.033611,
            "lon": 139.721944
        },
        {
            "name": "昭和レトロな温泉銭湯 玉川温泉",
            "desc": "昭和の古き良き銭湯の雰囲気を再現した、アルカリ性単純泉の日帰り温泉。",
            "pref": "埼玉県",
            "lat": 36.010833,
            "lon": 139.308889
        },
        {
            "name": "JFA夢フィールド 幕張温泉 湯楽の里",
            "desc": "東京湾を一望できる露天風呂が人気。スポーツリラクゼーション機能も備える。",
            "pref": "千葉県",
            "lat": 35.638611,
            "lon": 140.031944
        },
        {
            "name": "龍宮城スパホテル三日月",
            "desc": "多数のプールや温泉、黄金風呂などが楽しめる、木更津の大型スパリゾート。",
            "pref": "千葉県",
            "lat": 35.409167,
            "lon": 139.928889
        },
        {
            "name": "スパ＆リゾート九十九里 太陽の里",
            "desc": "九十九里浜のそばにあり、天然温泉と海鮮料理、演劇などが楽しめる。",
            "pref": "千葉県",
            "lat": 35.498889,
            "lon": 140.457222
        },
        {
            "name": "泉天空の湯 有明ガーデン",
            "desc": "有明ガーデンに併設。都心にいながら天然温泉と多彩な岩盤浴を楽しめる。",
            "pref": "東京都",
            "lat": 35.636111,
            "lon": 139.794444
        },
        {
            "name": "豊島園 庭の湯",
            "desc": "日本庭園を臨む大人のための温泉施設。バーデゾーン（水着着用）もある。",
            "pref": "東京都",
            "lat": 35.743611,
            "lon": 139.646944
        },
        {
            "name": "前野原温泉 さやの湯処",
            "desc": "古民家を再生した趣ある建物と、源泉かけ流しの露天風呂が人気の板橋区の温泉。",
            "pref": "東京都",
            "lat": 35.768611,
            "lon": 139.695833
        },
        {
            "name": "箱根小涌園ユネッサン",
            "desc": "水着で遊べる温泉テーマパークと、本格的な日帰り温泉「元湯 森の湯」がある。",
            "pref": "神奈川県",
            "lat": 35.239444,
            "lon": 139.043611
        },
        {
            "name": "江の島アイランドスパ",
            "desc": "江の島にあるスパリゾート。相模湾と富士山を望むインフィニティプールが有名。",
            "pref": "神奈川県",
            "lat": 35.301389,
            "lon": 139.481667
        },
        {
            "name": "絶景日帰り温泉 龍宮殿本館",
            "desc": "芦ノ湖畔に佇む歴史的建造物（国登録有形文化財）で、富士山と芦ノ湖を望み入浴できる。",
            "pref": "神奈川県",
            "lat": 35.216389,
            "lon": 139.027500
        },
        {
            "name": "越後湯沢温泉 ぽんしゅ館 酒風呂",
            "desc": "越後湯沢駅構内にあり、日本酒を投入した温泉に入れるユニークな施設。",
            "pref": "新潟県",
            "lat": 36.936667,
            "lon": 138.807778
        },
        {
            "name": "多宝温泉 だいろの湯",
            "desc": "硫黄の香りが強い源泉かけ流しの湯が3本あり、新潟屈指の泉質を誇る。",
            "pref": "新潟県",
            "lat": 37.747500,
            "lon": 138.857778
        },
        {
            "name": "寺泊 きんぱちの湯",
            "desc": "日本海を一望できる露天風呂があり、佐渡島も見える。海洋深層水のお風呂も。",
            "pref": "新潟県",
            "lat": 37.641667,
            "lon": 138.766389
        },
        {
            "name": "宇奈月温泉 総湯",
            "desc": "宇奈月温泉駅前にある共同浴場。地元の交流の場としても親しまれている。",
            "pref": "富山県",
            "lat": 36.816111,
            "lon": 137.583056
        },
        {
            "name": "天然温泉 海王",
            "desc": "良質な強塩泉と、富山新港近くの立地が魅力。肌がすべすべになると評判。",
            "pref": "富山県",
            "lat": 36.762500,
            "lon": 137.112222
        },
        {
            "name": "氷見温泉郷 総湯",
            "desc": "道の駅「氷見」に隣接し、源泉かけ流しの湯を楽しめる。食事や買い物にも便利。",
            "pref": "富山県",
            "lat": 36.862222,
            "lon": 136.983056
        },
        {
            "name": "山代温泉 古総湯",
            "desc": "明治時代の総湯を忠実に復元。ステンドグラスや九谷焼のタイルが美しい。",
            "pref": "石川県",
            "lat": 36.292500,
            "lon": 136.357778
        },
        {
            "name": "片山津温泉 総湯",
            "desc": "世界的建築家・谷口吉生氏による設計。柴山潟の湖畔に建つガラス張りのモダンな施設。",
            "pref": "石川県",
            "lat": 36.312500,
            "lon": 136.312500
        },
        {
            "name": "和倉温泉 総湯",
            "desc": "開湯1200年の歴史を持つ和倉温泉の中心施設。安価で名湯を楽しめる。",
            "pref": "石川県",
            "lat": 37.090556,
            "lon": 136.914722
        },
        {
            "name": "セントピアあわら",
            "desc": "芦原温泉の共同浴場的施設。「天の湯」「地の湯」があり、温泉卵作りも体験できる。",
            "pref": "福井県",
            "lat": 36.216667,
            "lon": 136.223056
        },
        {
            "name": "みくに温泉 ゆあぽーと",
            "desc": "三国港のすぐそばにあり、日本海に沈む夕日を見ながら入浴できる。",
            "pref": "福井県",
            "lat": 36.215556,
            "lon": 136.143611
        },
        {
            "name": "越前温泉 露天風呂 漁火",
            "desc": "道の駅「越前」に併設。日本海を見下ろす露天風呂があり、夜は漁火が見えることも。",
            "pref": "福井県",
            "lat": 35.952500,
            "lon": 135.962222
        },
        {
            "name": "ほったらかし温泉",
            "desc": "甲府盆地と富士山を見下ろす絶景露天風呂。「あっちの湯」と「こっちの湯」がある。",
            "pref": "山梨県",
            "lat": 35.706111,
            "lon": 138.653333
        },
        {
            "name": "みたまの湯",
            "desc": "夜景100選にも選ばれた、甲府盆地の夜景を一望できる天然温泉。",
            "pref": "山梨県",
            "lat": 35.545833,
            "lon": 138.530278
        },
        {
            "name": "山中湖温泉 紅富士の湯",
            "desc": "富士山を間近に望む絶好のロケーション。冬には紅富士が見られることも。",
            "pref": "山梨県",
            "lat": 35.433889,
            "lon": 138.851667
        },
        {
            "name": "野沢温泉 大湯",
            "desc": "野沢温泉に13ある外湯のシンボル的存在。湯屋建築が美しく、熱めの湯が特徴。",
            "pref": "長野県",
            "lat": 36.921389,
            "lon": 138.448056
        },
        {
            "name": "星野温泉 トンボの湯",
            "desc": "軽井沢の星野エリアにある、美肌の湯として知られる源泉かけ流しの温泉。",
            "pref": "長野県",
            "lat": 36.359444,
            "lon": 138.595278
        },
        {
            "name": "白骨温泉 泡の湯（日帰り入浴）",
            "desc": "乳白色の大露天風呂が有名な老舗旅館。混浴だが湯浴み着や濁り湯で入りやすい。",
            "pref": "長野県",
            "lat": 36.148611,
            "lon": 137.632222
        },
        {
            "name": "新穂高温泉 槍見館（槍見の湯）",
            "desc": "北アルプスの槍ヶ岳を望む混浴露天風呂が有名な秘湯の宿（日帰り可）。",
            "pref": "岐阜県",
            "lat": 36.279722,
            "lon": 137.568333
        },
        {
            "name": "下呂温泉 噴泉池",
            "desc": "益田川の河川敷にある名物露天風呂。※現在は水着着用必須、または足湯利用推奨。",
            "pref": "岐阜県",
            "lat": 35.805278,
            "lon": 137.240556
        },
        {
            "name": "クアテルメ飛騨",
            "desc": "下呂温泉にある健康増進施設。打たせ湯や箱蒸しなど多彩な浴槽がある。",
            "pref": "岐阜県",
            "lat": 35.811111,
            "lon": 137.243056
        },
        {
            "name": "赤沢日帰り温泉館",
            "desc": "DHCが運営する、太平洋と一体化したような大パノラマ露天風呂が人気の施設。",
            "pref": "静岡県",
            "lat": 34.856944,
            "lon": 139.091389
        },
        {
            "name": "オーシャンスパ Fuua",
            "desc": "熱海後楽園ホテルに併設された、日本最大級の立湯露天風呂があるスパリゾート。",
            "pref": "静岡県",
            "lat": 35.093333,
            "lon": 139.076667
        },
        {
            "name": "御殿場高原 時之栖（気楽坊）",
            "desc": "富士山を望む御殿場高原リゾート内の温泉施設。地ビールも楽しめる。",
            "pref": "静岡県",
            "lat": 35.253611,
            "lon": 138.922222
        },
        {
            "name": "天空SPA HILLS 竜泉寺の湯 名古屋守山本店",
            "desc": "スーパー銭湯ブームの火付け役。高台からの夜景と多彩な炭酸泉が魅力。",
            "pref": "愛知県",
            "lat": 35.228889,
            "lon": 137.001667
        },
        {
            "name": "湯谷温泉 鳳来ゆ～ゆ～ありいな",
            "desc": "板敷川の渓谷美を楽しみながら入浴できる、スポーツ施設併設の温泉。",
            "pref": "愛知県",
            "lat": 34.960278,
            "lon": 137.608333
        },
        {
            "name": "まるは食堂旅館 うめ乃湯",
            "desc": "南知多の名物食堂に併設された天然温泉。伊勢湾を眺めながら入浴できる。",
            "pref": "愛知県",
            "lat": 34.707778,
            "lon": 136.945833
        },
        {
            "name": "アクアイグニス 片岡温泉",
            "desc": "加水・加温なしの源泉100%かけ流し。有名シェフのスイーツや料理も楽しめる。",
            "pref": "三重県",
            "lat": 35.011667,
            "lon": 136.467500
        },
        {
            "name": "ナガシマスパーランド 湯あみの島",
            "desc": "日本最大級の露天風呂や、奥入瀬渓流などを再現した自然美が楽しめる。",
            "pref": "三重県",
            "lat": 35.029444,
            "lon": 136.731944
        },
        {
            "name": "榊原温泉 湯の瀬",
            "desc": "「美肌の湯」榊原温泉を気軽に楽しめる日帰り施設。リーズナブルな料金が魅力。",
            "pref": "三重県",
            "lat": 34.697500,
            "lon": 136.331389
        },
        {
            "name": "スパリゾート雄琴 あがりゃんせ",
            "desc": "琵琶湖の畔にある大型スパ施設。2種類の源泉と多数の浴槽、岩盤浴がある。",
            "pref": "滋賀県",
            "lat": 35.093333,
            "lon": 135.892778
        },
        {
            "name": "十二坊温泉 ゆらら",
            "desc": "オートキャンプ場も併設された、湖南市の山間にある温泉施設。",
            "pref": "滋賀県",
            "lat": 34.991667,
            "lon": 136.103056
        },
        {
            "name": "マキノ高原温泉 さらさ",
            "desc": "メタセコイア並木近くの高原にある温泉。水着で入るバーデゾーンも併設。",
            "pref": "滋賀県",
            "lat": 35.485556,
            "lon": 136.035278
        },
        {
            "name": "くらま温泉",
            "desc": "（現在休業中の可能性ありだが代表的）鞍馬の山里にある秘湯感あふれる露天風呂。",
            "pref": "京都府",
            "lat": 35.120000,
            "lon": 135.772500
        },
        {
            "name": "さがの温泉 天山の湯",
            "desc": "嵐山・嵯峨野観光の帰りに寄れる、源泉かけ流しの「金閣の湯」がある施設。",
            "pref": "京都府",
            "lat": 35.015000,
            "lon": 135.698333
        },
        {
            "name": "天橋立温泉 知恵の湯",
            "desc": "天橋立駅に隣接する外湯。和風の落ち着いた雰囲気で、「美肌の湯」を楽しめる。",
            "pref": "京都府",
            "lat": 35.556667,
            "lon": 135.182222
        },
        {
            "name": "るり渓温泉",
            "desc": "高原のリゾート施設内にある温泉。水着着用のバーデゾーンやグランピングも人気。",
            "pref": "京都府",
            "lat": 35.032778,
            "lon": 135.408611
        },
        {
            "name": "スパワールド 世界の大温泉",
            "desc": "世界各地の浴場を再現したテーマパーク型温泉。プールや岩盤浴も充実。",
            "pref": "大阪府",
            "lat": 34.649444,
            "lon": 135.506111
        },
        {
            "name": "空庭温泉 OSAKA BAY TOWER",
            "desc": "安土桃山時代をコンセプトにした、関西最大級の温泉型テーマパーク。",
            "pref": "大阪府",
            "lat": 34.670000,
            "lon": 135.460833
        },
        {
            "name": "箕面温泉スパーガーデン",
            "desc": "「美人の湯」として知られるとろりとした湯。大衆演劇や縁日コーナーも楽しめる。",
            "pref": "大阪府",
            "lat": 34.832778,
            "lon": 135.470556
        },
        {
            "name": "有馬温泉 金の湯",
            "desc": "有馬の名湯「金泉」を気軽に楽しめる公衆浴場。足湯も併設されている。",
            "pref": "兵庫県",
            "lat": 34.796944,
            "lon": 135.247778
        },
        {
            "name": "神戸みなと温泉 蓮",
            "desc": "神戸港の絶景を望む、ラグジュアリーな天然温泉旅館（日帰り利用可）。",
            "pref": "兵庫県",
            "lat": 34.685278,
            "lon": 135.195556
        },
        {
            "name": "城崎温泉 一の湯",
            "desc": "城崎温泉の7つの外湯の一つ。洞窟風呂が名物で、開運招福の湯とされる。",
            "pref": "兵庫県",
            "lat": 35.625000,
            "lon": 134.811667
        },
        {
            "name": "洞川温泉センター",
            "desc": "大峯山登山の拠点にある村営温泉。吉野杉を使った建物で、疲労回復に最適。",
            "pref": "奈良県",
            "lat": 34.271389,
            "lon": 135.881667
        },
        {
            "name": "曽爾高原温泉 お亀の湯",
            "desc": "曽爾高原の麓にあり、鎧岳などの山々を望むパノラマ露天風呂が絶景。",
            "pref": "奈良県",
            "lat": 34.524722,
            "lon": 136.155833
        },
        {
            "name": "十津川温泉 庵の湯",
            "desc": "ダム湖畔にある公衆浴場。源泉かけ流しの良質な湯と、静かな眺めが魅力。",
            "pref": "奈良県",
            "lat": 33.992222,
            "lon": 135.798333
        },
        {
            "name": "白浜温泉 崎の湯",
            "desc": "万葉の昔からある、太平洋に突き出した露天風呂。波しぶきがかかるほどの近さ。",
            "pref": "和歌山県",
            "lat": 33.682222,
            "lon": 135.341111
        },
        {
            "name": "わたらせ温泉 大露天風呂",
            "desc": "西日本最大級の広さを誇る大露天風呂があり、開放感抜群。",
            "pref": "和歌山県",
            "lat": 33.834444,
            "lon": 135.753333
        },
        {
            "name": "湯の峰温泉 つぼ湯",
            "desc": "世界遺産に登録された、川底から湧く小さな公衆浴場。1日に7回湯の色が変わると言われる。",
            "pref": "和歌山県",
            "lat": 33.829444,
            "lon": 135.773889
        },
        {
            "name": "皆生温泉 日帰り温泉オーシャン",
            "desc": "バリ島をイメージしたリゾート風温泉施設。日本海を一望できる露天風呂がある。",
            "pref": "鳥取県",
            "lat": 35.460000,
            "lon": 133.355278
        },
        {
            "name": "三朝温泉 株湯",
            "desc": "三朝温泉発祥の地にある共同浴場。熱めの湯で、地元の人にも愛されている。",
            "pref": "鳥取県",
            "lat": 35.408056,
            "lon": 133.896667
        },
        {
            "name": "はわい温泉 望湖楼（日帰り入浴）",
            "desc": "東郷湖に浮かぶ「湖上露天風呂」が名物の老舗旅館（日帰り利用時間要確認）。",
            "pref": "鳥取県",
            "lat": 35.485556,
            "lon": 133.882222
        },
        {
            "name": "玉造温泉 ゆ～ゆ",
            "desc": "勾玉をモチーフにした建物が特徴的な、玉造温泉の日帰り入浴施設。",
            "pref": "島根県",
            "lat": 35.418333,
            "lon": 133.011667
        },
        {
            "name": "温泉津温泉 薬師湯",
            "desc": "日本温泉協会から最高評価を受けた、源泉かけ流しの歴史ある共同浴場。",
            "pref": "島根県",
            "lat": 35.096389,
            "lon": 132.348889
        },
        {
            "name": "出雲駅前温泉 らんぷの湯",
            "desc": "出雲市駅のすぐ近くにあり、竹林に囲まれた露天風呂が落ち着く天然温泉。",
            "pref": "島根県",
            "lat": 35.360556,
            "lon": 132.756111
        },
        {
            "name": "湯原温泉 砂湯",
            "desc": "ダムの真下、川底から湧き出る24時間無料の混浴露天風呂（水着不可、湯浴み着推奨）。",
            "pref": "岡山県",
            "lat": 35.195556,
            "lon": 133.725833
        },
        {
            "name": "瀬戸内温泉 たまの湯",
            "desc": "宇野港近くにあり、瀬戸内海を眺めながら入浴できる露天風呂が自慢。",
            "pref": "岡山県",
            "lat": 34.492500,
            "lon": 133.953611
        },
        {
            "name": "湯郷鷺温泉館",
            "desc": "湯郷温泉にある公衆浴場。「動の湯」と「静の湯」の2つの浴場がある。",
            "pref": "岡山県",
            "lat": 35.006944,
            "lon": 134.135278
        },
        {
            "name": "湯来ロッジ",
            "desc": "湯来温泉の国民宿舎。加水なしの源泉かけ流し露天風呂を楽しめる。",
            "pref": "広島県",
            "lat": 34.468889,
            "lon": 132.285833
        },
        {
            "name": "塩屋天然温泉 ほの湯 楽々園",
            "desc": "広島市内で人気のスーパー銭湯。源泉かけ流しの露天風呂や炭酸泉がある。",
            "pref": "広島県",
            "lat": 34.364722,
            "lon": 132.368333
        },
        {
            "name": "きのえ温泉 ホテル清風館（日帰り）",
            "desc": "大崎上島にある、瀬戸内海の多島美を一望できる絶景露天風呂が素晴らしい。",
            "pref": "広島県",
            "lat": 34.225556,
            "lon": 132.903889
        },
        {
            "name": "長門湯本温泉 恩湯",
            "desc": "リニューアルされた長門湯本温泉のシンボル的立ち寄り湯。岩盤から湧く直上泉。",
            "pref": "山口県",
            "lat": 34.229167,
            "lon": 131.171111
        },
        {
            "name": "きらら交流館",
            "desc": "焼野海岸にある、夕陽が美しいトロン温泉。海水浴場に隣接。",
            "pref": "山口県",
            "lat": 33.986667,
            "lon": 131.162778
        },
        {
            "name": "湯田温泉 温泉の森",
            "desc": "湯田温泉にある大型の日帰り入浴施設。多彩な浴槽が楽しめる。",
            "pref": "山口県",
            "lat": 34.161111,
            "lon": 131.453333
        },
        {
            "name": "ホテル祖谷温泉（日帰り入浴）",
            "desc": "ケーブルカーで谷底へ下りる、祖谷渓の絶景露天風呂が有名な一軒宿。",
            "pref": "徳島県",
            "lat": 33.918056,
            "lon": 133.816667
        },
        {
            "name": "あらたえの湯",
            "desc": "徳島市内や鳴門にある人気のスーパー銭湯。ボートレース場隣接店などがある。",
            "pref": "徳島県",
            "lat": 34.090833,
            "lon": 134.588889
        },
        {
            "name": "びざんの湯（ホテルサンルート徳島）",
            "desc": "徳島駅前にあるホテル最上階の天然温泉。眉山を眺めながら入浴できる。",
            "pref": "徳島県",
            "lat": 34.073333,
            "lon": 134.551667
        },
        {
            "name": "仏生山温泉 天平湯",
            "desc": "洗練されたモダンな建築と、美人の湯として知られる重曹泉が人気の温泉。",
            "pref": "香川県",
            "lat": 34.305556,
            "lon": 134.048056
        },
        {
            "name": "琴平花壇（日帰り入浴）",
            "desc": "金刀比羅宮の杜に抱かれた老舗旅館。庭園の中の露天風呂で寛げる。",
            "pref": "香川県",
            "lat": 34.191111,
            "lon": 133.816389
        },
        {
            "name": "瀬戸大橋 四国健康村",
            "desc": "大衆演劇も見られる健康ランド。瀬戸内海を望む露天風呂がある。",
            "pref": "香川県",
            "lat": 34.316667,
            "lon": 133.833333
        },
        {
            "name": "道後温泉本館",
            "desc": "日本最古といわれる温泉のシンボル。重要文化財の公衆浴場で、霊の湯などが楽しめる。",
            "pref": "愛媛県",
            "lat": 33.852222,
            "lon": 132.785278
        },
        {
            "name": "道後温泉別館 飛鳥乃湯泉",
            "desc": "飛鳥時代をイメージした新しい湯屋。道後温泉本館にはない露天風呂もある。",
            "pref": "愛媛県",
            "lat": 33.851389,
            "lon": 132.786111
        },
        {
            "name": "マーレ・グラッシア大三島",
            "desc": "しまなみ海道・大三島にある、海水温浴療法を取り入れたタラソテラピー施設。",
            "pref": "愛媛県",
            "lat": 34.248611,
            "lon": 133.003056
        },
        {
            "name": "黒潮本陣",
            "desc": "太平洋を見下ろす高台にあり、汐湯の露天風呂から見る海と空の絶景が素晴らしい。",
            "pref": "高知県",
            "lat": 33.327500,
            "lon": 133.251389
        },
        {
            "name": "高知ぽかぽか温泉",
            "desc": "高知市内の人気スーパー銭湯。露天風呂や塩サウナなど設備が充実。",
            "pref": "高知県",
            "lat": 33.535833,
            "lon": 133.560278
        },
        {
            "name": "北川村温泉 ゆずの宿",
            "desc": "トロトロの泉質が自慢の山間の温泉。ゆずの香りに包まれることもある。",
            "pref": "高知県",
            "lat": 33.486944,
            "lon": 134.062500
        },
        {
            "name": "博多 由布院・武雄温泉 万葉の湯",
            "desc": "博多空港近くにあり、由布院と武雄の温泉を毎日運搬している都市型温泉施設。",
            "pref": "福岡県",
            "lat": 33.595278,
            "lon": 130.435556
        },
        {
            "name": "波葉の湯",
            "desc": "ベイサイドプレイス博多にある、源泉かけ流しの露天風呂を備えた温浴施設。",
            "pref": "福岡県",
            "lat": 33.605278,
            "lon": 130.396389
        },
        {
            "name": "照葉スパリゾート",
            "desc": "アイランドシティにある九州最大級のスパリゾート。岩盤浴や宿泊施設も完備。",
            "pref": "福岡県",
            "lat": 33.662222,
            "lon": 130.413889
        },
        {
            "name": "嬉野温泉 シーボルトの湯",
            "desc": "大正ロマン風のレトロな洋館の公衆浴場。嬉野温泉の中心に位置する。",
            "pref": "佐賀県",
            "lat": 33.098889,
            "lon": 129.982222
        },
        {
            "name": "武雄温泉 元湯",
            "desc": "明治時代に建てられた現存する日本最古の木造共同浴場。あつ湯とぬる湯がある。",
            "pref": "佐賀県",
            "lat": 33.196667,
            "lon": 130.016389
        },
        {
            "name": "古湯温泉 ONCRI",
            "desc": "山峡の温泉リゾート。日帰り入浴も可能で、モダンな空間でぬる湯を楽しめる。",
            "pref": "佐賀県",
            "lat": 33.376111,
            "lon": 130.222778
        },
        {
            "name": "稲佐山温泉 ふくの湯",
            "desc": "長崎市街の夜景を一望できる絶景露天風呂が人気のスーパー銭湯。",
            "pref": "長崎県",
            "lat": 32.756389,
            "lon": 129.851944
        },
        {
            "name": "雲仙温泉 雲仙よか湯",
            "desc": "雲仙温泉街にある共同浴場的な日帰り施設。白濁した硫黄泉かけ流し。",
            "pref": "長崎県",
            "lat": 32.740833,
            "lon": 130.261111
        },
        {
            "name": "脇浜温泉浴場（おたっしゃん湯）",
            "desc": "小浜温泉にある昔ながらの共同浴場。熱めの塩化物泉で地元の人に愛されている。",
            "pref": "長崎県",
            "lat": 32.723611,
            "lon": 130.207222
        },
        {
            "name": "熊本城温泉 城の湯",
            "desc": "熊本城の近くにある歴史ある公衆浴場＆ホテル。露天風呂もある。",
            "pref": "熊本県",
            "lat": 32.808056,
            "lon": 130.698333
        },
        {
            "name": "阿蘇 どんどこ湯",
            "desc": "アーデンホテル阿蘇に隣接する巨大な温泉施設。緑に囲まれた露天風呂が魅力。",
            "pref": "熊本県",
            "lat": 32.880833,
            "lon": 131.026389
        },
        {
            "name": "地獄温泉 青風荘.「すずめの湯」",
            "desc": "足元から源泉が湧き出る奇跡の湯。混浴だが湯浴み着着用で入れる。",
            "pref": "熊本県",
            "lat": 32.853056,
            "lon": 131.062222
        },
        {
            "name": "竹瓦温泉",
            "desc": "唐破風造りの重厚な建物がシンボルの、別府温泉を代表する市営共同浴場。砂湯もある。",
            "pref": "大分県",
            "lat": 33.277500,
            "lon": 131.505833
        },
        {
            "name": "ひょうたん温泉",
            "desc": "鉄輪温泉にある、ミシュランガイドにも掲載された日帰り温泉。瀧湯や砂湯が有名。",
            "pref": "大分県",
            "lat": 33.314167,
            "lon": 131.482222
        },
        {
            "name": "夢幻の里 春夏秋冬",
            "desc": "別府の山中にある秘湯感あふれる温泉。白濁した硫黄泉の露天風呂が人気。",
            "pref": "大分県",
            "lat": 33.303611,
            "lon": 131.458333
        },
        {
            "name": "シェラトン・グランデ・オーシャンリゾート 松泉宮",
            "desc": "松林の中にある温泉施設。「月読」などの露天風呂があり、日帰り利用も可能。",
            "pref": "宮崎県",
            "lat": 31.956667,
            "lon": 131.468889
        },
        {
            "name": "たまゆら温泉（宮崎観光ホテル）",
            "desc": "大淀川を眺めながら入浴できる、市街地にある美人の湯。",
            "pref": "宮崎県",
            "lat": 31.905556,
            "lon": 131.423611
        },
        {
            "name": "神の郷温泉",
            "desc": "小林市にある湯量豊富な温泉。高濃度の炭酸泉が自慢。",
            "pref": "宮崎県",
            "lat": 31.978889,
            "lon": 130.983333
        },
        {
            "name": "砂むし会館 砂楽",
            "desc": "指宿温泉名物、砂むし温泉の最大級の施設。波打ち際でデトックス体験ができる。",
            "pref": "鹿児島県",
            "lat": 31.233333,
            "lon": 130.640278
        },
        {
            "name": "ヘルシーランド たまて箱温泉",
            "desc": "開聞岳と東シナ海を望む絶景露天風呂が、「行ってよかった日帰りスパ」で有名。",
            "pref": "鹿児島県",
            "lat": 31.196667,
            "lon": 130.592500
        },
        {
            "name": "霧島ホテル 硫黄谷庭園大浴場",
            "desc": "体育館のような広さを誇る巨大な混浴大浴場。4種類の泉質を楽しめる。",
            "pref": "鹿児島県",
            "lat": 31.896667,
            "lon": 130.835000
        },
        {
            "name": "琉球温泉 瀬長島ホテル 龍神の湯",
            "desc": "海と空、飛行機を眺めながら入れる絶景露天風呂。立ち湯からの夕日は格別。",
            "pref": "沖縄県",
            "lat": 26.176389,
            "lon": 127.643056
        },
        {
            "name": "ユインチホテル南城 猿人の湯",
            "desc": "高台にあり、太平洋を見渡せる天然温泉。茶褐色の湯は美肌効果が高い。",
            "pref": "沖縄県",
            "lat": 26.155000,
            "lon": 127.766389
        },
        {
            "name": "シギラ黄金温泉",
            "desc": "宮古島の南岸にある、黄金色の天然温泉。ジャングルプールも併設したリゾート施設。",
            "pref": "沖縄県",
            "lat": 24.718056,
            "lon": 125.322500
        }
    ]
}