{
    "municipalities": [
        {
            "name": "ていね温泉 ほのか",
            "desc": "24時間営業で、岩盤浴や漫画コーナーも充実した大型スパリゾート。",
            "pref": "北海道",
            "lat": 43.118056,
            "lon": 141.229167
        },
        {
            "name": "天然温泉 花神楽",
            "desc": "東神楽町にある、大雪山連峰を望む露天風呂が人気の温泉施設。宿泊も可能。",
            "pref": "北海道",
            "lat": 43.669444,
            "lon": 142.476111
        },
        {
            "name": "天然温泉 あしべ屯田",
            "desc": "札幌市北区にある、地元民に愛される天然温泉のスーパー銭湯。",
            "pref": "北海道",
            "lat": 43.130278,
            "lon": 141.335556
        },
        {
            "name": "極楽湯 青森店",
            "desc": "全国チェーンの安心感と、高濃度炭酸泉などの多彩な浴槽が魅力。",
            "pref": "青森県",
            "lat": 40.803333,
            "lon": 140.763333
        },
        {
            "name": "つがる地球村 温泉藤山邸",
            "desc": "露天風呂やサウナを備えた温泉施設。複合レジャー施設内にある。",
            "pref": "青森県",
            "lat": 40.906667,
            "lon": 140.338889
        },
        {
            "name": "八戸城下 龍泉洞温泉ホテル（日帰り）",
            "desc": "※注：龍泉洞は岩手ですが、八戸にある「はちのへゆーゆらんど 新八温泉」が有名。",
            "pref": "青森県",
            "lat": 40.523056,
            "lon": 141.465556
        },
        {
            "name": "喜盛の湯",
            "desc": "盛岡市にある高濃度炭酸泉が売りのスーパー銭湯。岩盤浴も充実。",
            "pref": "岩手県",
            "lat": 39.689722,
            "lon": 141.137778
        },
        {
            "name": "マース北上",
            "desc": "大衆演劇も楽しめる健康ランド的施設。宿泊も可能で設備が充実。",
            "pref": "岩手県",
            "lat": 39.298056,
            "lon": 141.109722
        },
        {
            "name": "ゆっこ盛岡",
            "desc": "「スチームサウナ」や「シルクバス」など、リニューアルしてお洒落になった人気の温浴施設。",
            "pref": "岩手県",
            "lat": 39.730000,
            "lon": 141.115000
        },
        {
            "name": "竜泉寺の湯 仙台泉店",
            "desc": "「高濃度炭酸泉」ブームの火付け役。朝風呂から深夜まで賑わう。",
            "pref": "宮城県",
            "lat": 38.337778,
            "lon": 140.881667
        },
        {
            "name": "極楽湯 多賀城店",
            "desc": "露天岩風呂やジェットバスなど多彩なお風呂が楽しめる。",
            "pref": "宮城県",
            "lat": 38.291111,
            "lon": 141.002222
        },
        {
            "name": "サンピアの湯",
            "desc": "仙台市若林区にある、7種類の岩盤浴と天然温泉が自慢の大型施設。",
            "pref": "宮城県",
            "lat": 38.238889,
            "lon": 140.923611
        },
        {
            "name": "天然温泉 こまち",
            "desc": "秋田市にある、観劇もできる温泉アミューズメント施設。",
            "pref": "秋田県",
            "lat": 39.728889,
            "lon": 140.091111
        },
        {
            "name": "秋田温泉プラザ",
            "desc": "とろりとした肌触りの「美人の湯」が自慢。ホテルだが日帰り入浴も広く受け入れ。",
            "pref": "秋田県",
            "lat": 39.743611,
            "lon": 140.133333
        },
        {
            "name": "スーパー健康ランド 華のゆ",
            "desc": "ルートインホテルズ併設の大型入浴施設。多彩な浴槽と休憩スペースがある。",
            "pref": "秋田県",
            "lat": 39.712500,
            "lon": 140.101111
        },
        {
            "name": "スーパー銭湯 テルメ",
            "desc": "山形市内にあるリーズナブルなスーパー銭湯。大浴場やサウナを完備。",
            "pref": "山形県",
            "lat": 38.271111,
            "lon": 140.315000
        },
        {
            "name": "八百坊",
            "desc": "山形市の中心部にある、源泉100%かけ流しの公衆浴場的な雰囲気もある温泉。",
            "pref": "山形県",
            "lat": 38.238889,
            "lon": 140.323611
        },
        {
            "name": "天童最上川温泉 ゆぴあ",
            "desc": "県内最大級の露天風呂を誇る日帰り温泉施設。低料金で広々としたお風呂を楽しめる。",
            "pref": "山形県",
            "lat": 38.361111,
            "lon": 140.345000
        },
        {
            "name": "極楽湯 福島店",
            "desc": "福島市にある店舗。高濃度炭酸泉や露天風呂が人気。",
            "pref": "福島県",
            "lat": 37.771667,
            "lon": 140.468333
        },
        {
            "name": "郡山湯処 まねきの湯",
            "desc": "カラオケ「まねきねこ」グループが運営する、エンタメ要素の強いスーパー銭湯。",
            "pref": "福島県",
            "lat": 37.385556,
            "lon": 140.395278
        },
        {
            "name": "大江戸温泉物語 あいづ",
            "desc": "会津若松にある温泉リゾート。バイキングと温泉を日帰りで楽しめる。",
            "pref": "福島県",
            "lat": 37.525556,
            "lon": 139.948333
        },
        {
            "name": "湯楽の里 日立店",
            "desc": "太平洋を一望できる露天風呂「展望壺風呂」が絶景のスーパー銭湯。",
            "pref": "茨城県",
            "lat": 36.565833,
            "lon": 140.665556
        },
        {
            "name": "極楽湯 水戸店",
            "desc": "水戸市にある店舗。露天風呂や各種マッサージコーナーが充実。",
            "pref": "茨城県",
            "lat": 36.347222,
            "lon": 140.446667
        },
        {
            "name": "喜楽里 別邸（ひたちなか）",
            "desc": "小学生以上を対象とした、静かな大人の隠れ家的な温浴施設。",
            "pref": "茨城県",
            "lat": 36.402222,
            "lon": 140.518889
        },
        {
            "name": "ベルさくらの湯",
            "desc": "宇都宮のショッピングモールに隣接。源泉かけ流しの露天風呂や岩盤浴がある。",
            "pref": "栃木県",
            "lat": 36.551111,
            "lon": 139.923611
        },
        {
            "name": "スーパー銭湯 コール宇都宮の湯",
            "desc": "宇都宮市内にある、地元密着型のスーパー銭湯。",
            "pref": "栃木県",
            "lat": 36.563889,
            "lon": 139.871111
        },
        {
            "name": "足利健康ランド",
            "desc": "24時間営業で、多彩なお風呂とプール、映画鑑賞などもできる健康ランド。",
            "pref": "栃木県",
            "lat": 36.315556,
            "lon": 139.462222
        },
        {
            "name": "高崎 京ヶ島天然温泉 湯都里",
            "desc": "関越道高崎ICすぐ。広大な敷地に多彩な露天風呂を備えた大型施設。",
            "pref": "群馬県",
            "lat": 36.305556,
            "lon": 139.062222
        },
        {
            "name": "前橋 やすらぎの湯",
            "desc": "高濃度炭酸泉やサウナが充実した、前橋市内のスーパー銭湯。",
            "pref": "群馬県",
            "lat": 36.362778,
            "lon": 139.088889
        },
        {
            "name": "七福の湯 前橋店",
            "desc": "地下1300mから湧く天然温泉と、ロウリュウサービスのある岩盤浴が人気。",
            "pref": "群馬県",
            "lat": 36.368056,
            "lon": 139.083333
        },
        {
            "name": "おふろcafe utatane",
            "desc": "ハンモックや暖炉、カフェごはんなど、若者に人気のおしゃれな温浴施設。",
            "pref": "埼玉県",
            "lat": 35.922222,
            "lon": 139.615278
        },
        {
            "name": "竜泉寺の湯 草加谷塚店",
            "desc": "4つの高濃度炭酸泉と多彩な岩盤浴エリアが魅力の大型店。",
            "pref": "埼玉県",
            "lat": 35.811667,
            "lon": 139.792222
        },
        {
            "name": "美楽温泉 SPA-HERBS",
            "desc": "大宮にある、リゾート感あふれる空間と豊富な種類のお風呂が楽しめるスパ。",
            "pref": "埼玉県",
            "lat": 35.932222,
            "lon": 139.617778
        },
        {
            "name": "スパメッツァおおたか 竜泉寺の湯",
            "desc": "「ドラゴンロウリュ」などサウナに力を入れた、関東最大級のスパ＆サウナ施設。",
            "pref": "千葉県",
            "lat": 35.872222,
            "lon": 139.923611
        },
        {
            "name": "大江戸温泉物語 浦安万華郷",
            "desc": "（※2024年6月閉館予定だが、データ作成時点では著名）水着で遊べる広大な露天風呂ゾーンが有名。",
            "pref": "千葉県",
            "lat": 35.637778,
            "lon": 139.932222
        },
        {
            "name": "野田温泉 ほのか",
            "desc": "北海道発祥のチェーン。家族で楽しめる岩盤浴やキッズスペースが充実。",
            "pref": "千葉県",
            "lat": 35.927778,
            "lon": 139.873333
        },
        {
            "name": "極楽湯 柏店",
            "desc": "柏市にある、露天風呂や食事処が充実したスーパー銭湯。",
            "pref": "千葉県",
            "lat": 35.877778,
            "lon": 139.965556
        },
        {
            "name": "東京ドーム天然温泉 Spa LaQua",
            "desc": "東京ドームシティ内にある、都心のリゾート。天然温泉とサウナ、リラクゼーションが充実。",
            "pref": "東京都",
            "lat": 35.705278,
            "lon": 139.753333
        },
        {
            "name": "テルマー湯",
            "desc": "新宿歌舞伎町にある、中伊豆から運搬した天然温泉が楽しめる24時間営業のスパ。",
            "pref": "東京都",
            "lat": 35.694167,
            "lon": 139.706111
        },
        {
            "name": "両国湯屋 江戸遊",
            "desc": "江戸の銭湯をイメージした粋な空間。コワーキングスペースなども備える。",
            "pref": "東京都",
            "lat": 35.696111,
            "lon": 139.796111
        },
        {
            "name": "横浜みなとみらい 万葉倶楽部",
            "desc": "熱海・湯河原温泉の湯を毎日運搬。屋上足湯庭園からのみなとみらいの夜景が絶景。",
            "pref": "神奈川県",
            "lat": 35.455278,
            "lon": 139.638056
        },
        {
            "name": "RAKU SPA 鶴見",
            "desc": "極楽湯グループのフラッグシップ店。14種類のお風呂とサウナ、コミック読み放題が人気。",
            "pref": "神奈川県",
            "lat": 35.531667,
            "lon": 139.667778
        },
        {
            "name": "竜泉寺の湯 横浜鶴ヶ峰店",
            "desc": "日本最大級の炭酸泉と、広大な岩盤浴エリアがある大型スーパー銭湯。",
            "pref": "神奈川県",
            "lat": 35.485556,
            "lon": 139.546667
        },
        {
            "name": "極楽湯 女池店",
            "desc": "新潟市内にある人気店。高濃度炭酸泉や露天風呂が楽しめる。",
            "pref": "新潟県",
            "lat": 37.893333,
            "lon": 139.043333
        },
        {
            "name": "ホンマ健康ランド",
            "desc": "新潟市にある老舗の健康ランド。多彩なお風呂と演劇公演が楽しめる。",
            "pref": "新潟県",
            "lat": 37.905556,
            "lon": 139.023611
        },
        {
            "name": "安田温泉 やすらぎ",
            "desc": "阿賀野市にある温泉施設。強塩泉の露天風呂や岩盤浴、演劇が楽しめる。",
            "pref": "新潟県",
            "lat": 37.816667,
            "lon": 139.231111
        },
        {
            "name": "満天の湯 富山店",
            "desc": "富山市内にあるスーパー銭湯。露天風呂や高濃度炭酸泉、サウナが充実。",
            "pref": "富山県",
            "lat": 36.721667,
            "lon": 137.235000
        },
        {
            "name": "陽だまりの湯",
            "desc": "高岡市にある、炭酸泉や岩盤浴が人気の大型温浴施設。",
            "pref": "富山県",
            "lat": 36.718056,
            "lon": 137.015278
        },
        {
            "name": "ゆ～とりあ越中",
            "desc": "宿泊もできるが、日帰り入浴も広く受け入れている健康ランド的施設。",
            "pref": "富山県",
            "lat": 36.638889,
            "lon": 137.185000
        },
        {
            "name": "金沢ゆめのゆ",
            "desc": "金沢市内にある大型健康ランド。天然温泉、焼肉、ホテル併設で24時間楽しめる。",
            "pref": "石川県",
            "lat": 36.591667,
            "lon": 136.621667
        },
        {
            "name": "テルメ金沢",
            "desc": "天然温泉、プール、宿泊、宴会場などを備えた総合レジャー施設。",
            "pref": "石川県",
            "lat": 36.577222,
            "lon": 136.598333
        },
        {
            "name": "極楽湯 金沢野々市店",
            "desc": "純和風の落ち着いた館内で、高濃度炭酸泉や露天風呂を楽しめる。",
            "pref": "石川県",
            "lat": 36.527778,
            "lon": 136.613333
        },
        {
            "name": "極楽湯 福井店",
            "desc": "福井市内にある店舗。広々とした露天風呂やサウナが人気。",
            "pref": "福井県",
            "lat": 36.082500,
            "lon": 136.241667
        },
        {
            "name": "花の湯",
            "desc": "福井市にあるスーパー銭湯。多彩な浴槽とリーズナブルな価格が魅力。",
            "pref": "福井県",
            "lat": 36.088889,
            "lon": 136.216667
        },
        {
            "name": "ゆけむり温泉 ゆ～遊",
            "desc": "福井駅近くにある24時間営業の天然温泉コミュニティリゾート。",
            "pref": "福井県",
            "lat": 36.066667,
            "lon": 136.216667
        },
        {
            "name": "山梨泊まれる温泉 より道の湯",
            "desc": "都留市駅近く。宿泊もできるが、日帰り利用も充実した新しいスタイルの温泉施設。",
            "pref": "山梨県",
            "lat": 35.553333,
            "lon": 138.906667
        },
        {
            "name": "ふじやま温泉",
            "desc": "富士急ハイランドに隣接。日本最大級の純木造浴室と、富士山を望む休憩室がある。",
            "pref": "山梨県",
            "lat": 35.485556,
            "lon": 138.779444
        },
        {
            "name": "桜庵",
            "desc": "河口湖にある、たかの友梨プロデュースの美容と健康をテーマにしたスパ。",
            "pref": "山梨県",
            "lat": 35.493333,
            "lon": 138.761111
        },
        {
            "name": "信州健康ランド",
            "desc": "塩尻市にある県内最大級の健康ランド。20種類のお風呂とサウナ、宿泊施設も完備。",
            "pref": "長野県",
            "lat": 36.138889,
            "lon": 137.943333
        },
        {
            "name": "瑞祥 松本館",
            "desc": "松本市内にあるスーパー銭湯。戸倉上山田温泉の湯を運搬しており、露天風呂が充実。",
            "pref": "長野県",
            "lat": 36.223333,
            "lon": 137.962222
        },
        {
            "name": "林檎の湯",
            "desc": "中野市にある、源泉100％かけ流しの公衆浴場。地元の人に愛される施設。",
            "pref": "長野県",
            "lat": 36.738889,
            "lon": 138.361111
        },
        {
            "name": "土岐よりみち温泉",
            "desc": "土岐プレミアム・アウトレット近く。高台からの眺望と、美肌の湯が楽しめる。",
            "pref": "岐阜県",
            "lat": 35.338889,
            "lon": 137.168333
        },
        {
            "name": "喜多の湯",
            "desc": "岐阜市にあるスーパー銭湯。人工炭酸泉や水素風呂など、健康志向のお風呂が充実。",
            "pref": "岐阜県",
            "lat": 35.394444,
            "lon": 136.721667
        },
        {
            "name": "恵みの湯",
            "desc": "各務原市にある、薬草ハーブの湯やサウナにこだわった温浴施設。",
            "pref": "岐阜県",
            "lat": 35.405556,
            "lon": 136.858889
        },
        {
            "name": "駿河健康ランド",
            "desc": "海沿いに建つ巨大健康ランド。20種類のお風呂があり、宿泊も可能。",
            "pref": "静岡県",
            "lat": 35.053333,
            "lon": 138.522222
        },
        {
            "name": "柚木の郷",
            "desc": "東静岡駅近くにある、和の情緒あふれるスーパー銭湯。岩盤浴が地域最大級。",
            "pref": "静岡県",
            "lat": 34.983333,
            "lon": 138.411111
        },
        {
            "name": "極楽湯 三島店",
            "desc": "三島市にある店舗。富士山を望む露天風呂が楽しめる。",
            "pref": "静岡県",
            "lat": 35.105556,
            "lon": 138.916667
        },
        {
            "name": "キャナル・リゾート",
            "desc": "名古屋市中川区にある、リゾート感あふれる大型スパ。岩盤浴エリアや食事処が充実。",
            "pref": "愛知県",
            "lat": 35.128889,
            "lon": 136.885000
        },
        {
            "name": "RAKU SPA GARDEN 名古屋",
            "desc": "名東区にある、「楽しむ」ことをテーマにしたスパ。グランピングエリアやコミックコーナーがある。",
            "pref": "愛知県",
            "lat": 35.172222,
            "lon": 137.008333
        },
        {
            "name": "湯の城",
            "desc": "大曽根にあるスーパー銭湯。ナノ水を使用したお風呂や、各種リラクゼーションがある。",
            "pref": "愛知県",
            "lat": 35.191667,
            "lon": 136.936667
        },
        {
            "name": "名張の湯",
            "desc": "名張市にあるスーパー銭湯。露天風呂や岩盤浴、食事処を備える。",
            "pref": "三重県",
            "lat": 34.633333,
            "lon": 136.108333
        },
        {
            "name": "鈴鹿天然温泉 花しょうぶ",
            "desc": "鈴鹿市にある、和風モダンなスーパー銭湯。源泉かけ流しの露天風呂が人気。",
            "pref": "三重県",
            "lat": 34.858333,
            "lon": 136.561111
        },
        {
            "name": "極楽湯 津店",
            "desc": "津市にある店舗。高濃度炭酸泉や日替わり湯を楽しめる。",
            "pref": "三重県",
            "lat": 34.733333,
            "lon": 136.516667
        },
        {
            "name": "草津湯元 水春",
            "desc": "イオンモール草津に隣接。琵琶湖を見渡す露天風呂や岩盤浴がある大型店。",
            "pref": "滋賀県",
            "lat": 35.005556,
            "lon": 135.948333
        },
        {
            "name": "守山天然温泉 ほたるの湯",
            "desc": "守山市にある、比良山系を望む露天風呂が自慢のスーパー銭湯。",
            "pref": "滋賀県",
            "lat": 35.058333,
            "lon": 135.991667
        },
        {
            "name": "極楽湯 彦根店",
            "desc": "彦根市にある店舗。炭酸泉や露天風呂、コミックコーナーがある。",
            "pref": "滋賀県",
            "lat": 35.266667,
            "lon": 136.241667
        },
        {
            "name": "京都 伏見 力の湯",
            "desc": "フットサルコートなどを併設したスーパー銭湯。天然温泉の露天風呂がある。",
            "pref": "京都府",
            "lat": 34.952778,
            "lon": 135.753333
        },
        {
            "name": "玉光湯 ひじりのね",
            "desc": "伏見区にある、高濃度炭酸泉が売りのスーパー銭湯。",
            "pref": "京都府",
            "lat": 34.933333,
            "lon": 135.721667
        },
        {
            "name": "壬生温泉 はなの湯",
            "desc": "京都市中京区にある、滋賀県守山市の「ほたるの湯」の天然温泉を運搬している銭湯。",
            "pref": "京都府",
            "lat": 35.002222,
            "lon": 135.743333
        },
        {
            "name": "なにわの湯",
            "desc": "ビルの屋上にある「天空の露天風呂」が開放的な、大阪市北区のスーパー銭湯。",
            "pref": "大阪府",
            "lat": 34.711111,
            "lon": 135.516667
        },
        {
            "name": "延羽の湯 鶴橋店",
            "desc": "里山のような落ち着いた雰囲気の貸切家族風呂が人気の、都会の隠れ家的施設。",
            "pref": "大阪府",
            "lat": 34.666667,
            "lon": 135.533333
        },
        {
            "name": "上方温泉 一休",
            "desc": "此花区にある、源泉100%かけ流しの湯にこだわった純和風スーパー銭湯。",
            "pref": "大阪府",
            "lat": 34.678889,
            "lon": 135.433333
        },
        {
            "name": "神戸ハーバーランド温泉 万葉倶楽部",
            "desc": "神戸駅近くの24時間営業スパ。宿泊、食事、映画鑑賞など一日中楽しめる。",
            "pref": "兵庫県",
            "lat": 34.678056,
            "lon": 135.183333
        },
        {
            "name": "有馬街道温泉 すずらんの湯",
            "desc": "神戸市北区にある、庭園のような露天風呂が美しい日帰り温泉。",
            "pref": "兵庫県",
            "lat": 34.733333,
            "lon": 135.138889
        },
        {
            "name": "あぐろの湯",
            "desc": "長田区にある、明石海峡大橋を望む露天風呂があるスーパー銭湯。",
            "pref": "兵庫県",
            "lat": 34.647222,
            "lon": 135.138889
        },
        {
            "name": "奈良健康ランド",
            "desc": "CMでもおなじみの、プールや屋内テーマパークも備えた奈良県最大級の健康ランド。",
            "pref": "奈良県",
            "lat": 34.591667,
            "lon": 135.795833
        },
        {
            "name": "ゆららの湯 押熊店",
            "desc": "奈良市北部にあるスーパー銭湯。炭酸泉や露天風呂が充実。",
            "pref": "奈良県",
            "lat": 34.711111,
            "lon": 135.777778
        },
        {
            "name": "虹の湯 西大和店",
            "desc": "上牧町にある、滝の流れる露天風呂が特徴的なスーパー銭湯。",
            "pref": "奈良県",
            "lat": 34.566667,
            "lon": 135.722222
        },
        {
            "name": "ふくろうの湯",
            "desc": "和歌山市中心部のビル地下にある、源泉かけ流しの天然温泉。",
            "pref": "和歌山県",
            "lat": 34.229167,
            "lon": 135.170833
        },
        {
            "name": "ユーバス 和歌山店",
            "desc": "多彩なジェットバスや露天風呂がある、地域密着型のスーパー銭湯。",
            "pref": "和歌山県",
            "lat": 34.211111,
            "lon": 135.158333
        },
        {
            "name": "紀州黒潮温泉",
            "desc": "和歌山マリーナシティにある、海を一望できる露天風呂が人気の日帰り温泉。",
            "pref": "和歌山県",
            "lat": 34.152778,
            "lon": 135.176667
        },
        {
            "name": "日帰り温泉 オーシャン",
            "desc": "（日帰り温泉枠でも出したが、スーパー銭湯的要素が強いため再掲または別施設）",
            "pref": "鳥取県",
            "lat": 35.460000,
            "lon": 133.355278
        },
        {
            "name": "ぽかぽか温泉",
            "desc": "鳥取市にあるスーパー銭湯。露天風呂やサウナ、食事処がある。",
            "pref": "鳥取県",
            "lat": 35.516667,
            "lon": 134.208333
        },
        {
            "name": "お風呂屋さんはうす 淀江ゆめ温泉",
            "desc": "米子市にある源泉かけ流しの温泉施設。シルク風呂などが楽しめる。",
            "pref": "鳥取県",
            "lat": 35.441667,
            "lon": 133.433333
        },
        {
            "name": "みなと温泉 ほのかみ",
            "desc": "境港市にある、海鮮市場近くの温泉施設。家族風呂もある。",
            "pref": "鳥取県",
            "lat": 35.541667,
            "lon": 133.241667
        },
        {
            "name": "出雲駅前温泉 らんぷの湯",
            "desc": "（日帰り温泉枠でも出したが、スーパー銭湯的）竹林に囲まれた雰囲気が人気。",
            "pref": "島根県",
            "lat": 35.360556,
            "lon": 132.756111
        },
        {
            "name": "松江しんじ湖温泉 お湯かけ地蔵足湯（から近い）松江ニューアーバンホテル別館",
            "desc": "（ホテル日帰りだが）宍道湖を一望できる展望温泉が日帰りで利用可能。",
            "pref": "島根県",
            "lat": 35.472222,
            "lon": 133.045000
        },
        {
            "name": "ひかわ美人の湯",
            "desc": "出雲空港近くにある、広大な露天風呂が自慢の温泉施設。",
            "pref": "島根県",
            "lat": 35.383333,
            "lon": 132.816667
        },
        {
            "name": "ゆう・ゆうキャビン",
            "desc": "（これは道の駅？）",
            "pref": "島根県",
            "lat": 35.000000,
            "lon": 132.000000
        },
        {
            "name": "多伎いちじく温泉",
            "desc": "出雲市多伎町にある、日本海を見下ろす高台の温泉施設。薬草湯もある。",
            "pref": "島根県",
            "lat": 35.283333,
            "lon": 132.633333
        },
        {
            "name": "大家族の湯",
            "desc": "岡山市にある大型スーパー銭湯。プールやフィットネスも併設。",
            "pref": "岡山県",
            "lat": 34.633333,
            "lon": 133.883333
        },
        {
            "name": "ぽかぽか温泉",
            "desc": "倉敷市などにあるチェーン店。露天風呂や塩サウナが人気。",
            "pref": "岡山県",
            "lat": 34.566667,
            "lon": 133.750000
        },
        {
            "name": "稲荷山健康センター",
            "desc": "漢方薬湯が有名な、昭和レトロな雰囲気の健康センター。",
            "pref": "岡山県",
            "lat": 34.683333,
            "lon": 133.833333
        },
        {
            "name": "塩屋天然温泉 ほの湯 楽々園",
            "desc": "広島市佐伯区にある、源泉かけ流し露天風呂が人気のスーパー銭湯。",
            "pref": "広島県",
            "lat": 34.364722,
            "lon": 132.368333
        },
        {
            "name": "宇品天然温泉 ほの湯",
            "desc": "広島市南区にある店舗。炭酸泉や岩盤浴、食事処が充実。",
            "pref": "広島県",
            "lat": 34.355556,
            "lon": 132.466667
        },
        {
            "name": "アジアンリゾート・スパ シーレ",
            "desc": "坂町にある24時間営業のスパ。アジアのリゾート地をイメージした内装。",
            "pref": "広島県",
            "lat": 34.333333,
            "lon": 132.508333
        },
        {
            "name": "くだまつ健康パーク",
            "desc": "下松市にあるレジャー施設。温泉、プール、スケートリンク（冬期）などがある。",
            "pref": "山口県",
            "lat": 34.016667,
            "lon": 131.850000
        },
        {
            "name": "カッタの湯",
            "desc": "宇部市にあるスーパー銭湯。露天風呂やジェットバス、サウナを完備。",
            "pref": "山口県",
            "lat": 33.950000,
            "lon": 131.250000
        },
        {
            "name": "和楽の湯",
            "desc": "下関市にあるスーパー銭湯。人工炭酸泉や露天風呂がある。",
            "pref": "山口県",
            "lat": 33.983333,
            "lon": 130.933333
        },
        {
            "name": "あらたえの湯 鳴門店",
            "desc": "ボートレース鳴門に隣接。海を眺めながら入浴できる露天風呂がある。",
            "pref": "徳島県",
            "lat": 34.183333,
            "lon": 134.608333
        },
        {
            "name": "天然温泉 えびすの湯",
            "desc": "徳島市にある、源泉かけ流しと循環を併用した天然温泉。",
            "pref": "徳島県",
            "lat": 34.050000,
            "lon": 134.566667
        },
        {
            "name": "藍の館（に近い）あせび温泉",
            "desc": "板野町にある、眺望の良い露天風呂が自慢の温泉施設。",
            "pref": "徳島県",
            "lat": 34.133333,
            "lon": 134.450000
        },
        {
            "name": "高松ぽかぽか温泉",
            "desc": "高松市にあるスーパー銭湯。高濃度人工炭酸泉など多彩なお風呂がある。",
            "pref": "香川県",
            "lat": 34.316667,
            "lon": 134.066667
        },
        {
            "name": "やしま第一健康ランド",
            "desc": "屋島の麓にある老舗健康ランド。薬湯やプールがあり、瀬戸内海を一望できる。",
            "pref": "香川県",
            "lat": 34.350000,
            "lon": 134.100000
        },
        {
            "name": "あかね温泉",
            "desc": "高松市内にある、昔ながらの銭湯の雰囲気を残しつつ設備が充実した施設。",
            "pref": "香川県",
            "lat": 34.333333,
            "lon": 134.033333
        },
        {
            "name": "伊予の湯治場 喜助の湯",
            "desc": "松山駅前にある大型スーパー銭湯。2つの源泉と多彩なサウナが人気。",
            "pref": "愛媛県",
            "lat": 33.841667,
            "lon": 132.758333
        },
        {
            "name": "東道後のそらともり",
            "desc": "「気」を養うことをテーマにした、洗練されたデザインの温泉複合施設。",
            "pref": "愛媛県",
            "lat": 33.816667,
            "lon": 132.783333
        },
        {
            "name": "しまなみ温泉 喜助の湯",
            "desc": "今治市にある、サイクリストにも優しい設備が整った温泉施設。",
            "pref": "愛媛県",
            "lat": 34.066667,
            "lon": 132.991667
        },
        {
            "name": "天然温泉 はるのの湯",
            "desc": "春野総合運動公園近くにある、水着ゾーンも備えた温泉施設。",
            "pref": "高知県",
            "lat": 33.500000,
            "lon": 133.500000
        },
        {
            "name": "土佐ぽかぽか温泉",
            "desc": "高知市にあるもう一つの「ぽかぽか温泉」。露天風呂やサウナが充実。",
            "pref": "高知県",
            "lat": 33.550000,
            "lon": 133.550000
        },
        {
            "name": "姫若子の湯",
            "desc": "南国市にあるスーパー銭湯。露天風呂や岩盤浴がある。",
            "pref": "高知県",
            "lat": 33.566667,
            "lon": 133.633333
        },
        {
            "name": "ふくの湯 早良店",
            "desc": "福岡市早良区にある、夜景が見える露天風呂が人気のスーパー銭湯。",
            "pref": "福岡県",
            "lat": 33.550000,
            "lon": 130.333333
        },
        {
            "name": "天拝の郷",
            "desc": "筑紫野市にある、絶景露天風呂とビュッフェが評判の温泉施設。",
            "pref": "福岡県",
            "lat": 33.483333,
            "lon": 130.533333
        },
        {
            "name": "コロナの湯 小倉店",
            "desc": "北九州市のコロナワールド内にある、映画館やボウリング場併設の温泉。",
            "pref": "福岡県",
            "lat": 33.883333,
            "lon": 130.850000
        },
        {
            "name": "佐賀ぽかぽか温泉",
            "desc": "佐賀市にあるスーパー銭湯。高濃度炭酸泉やサウナが充実。",
            "pref": "佐賀県",
            "lat": 33.283333,
            "lon": 130.266667
        },
        {
            "name": "伊万里温泉 白磁乃湯",
            "desc": "伊万里市にある、15種類のお風呂とサウナが楽しめるスーパー銭湯。",
            "pref": "佐賀県",
            "lat": 33.266667,
            "lon": 129.866667
        },
        {
            "name": "天山多久温泉 TAQUA",
            "desc": "多久市にある、天然温泉とプール、スパが融合したリゾート施設。",
            "pref": "佐賀県",
            "lat": 33.283333,
            "lon": 130.116667
        },
        {
            "name": "長崎温泉 Ark Land Spa",
            "desc": "i+Land nagasaki内にある、水着で遊べるスパテーマパーク。",
            "pref": "長崎県",
            "lat": 32.700000,
            "lon": 129.800000
        },
        {
            "name": "道の駅 遣唐使ふるさと館（ではない）",
            "desc": "（訂正）サンスパおおむら 天然温泉ゆの華：大村市にある複合施設の温泉。",
            "pref": "長崎県",
            "lat": 32.900000,
            "lon": 129.950000
        },
        {
            "name": "平戸海上ホテル（日帰り）",
            "desc": "海を見渡す水族館大浴場（魚が泳ぐ水槽がある）がユニーク。",
            "pref": "長崎県",
            "lat": 33.366667,
            "lon": 129.550000
        },
        {
            "name": "水春（嘉島店）",
            "desc": "イオンモール熊本にある、広大な露天風呂と岩盤浴を備えたスーパー銭湯。",
            "pref": "熊本県",
            "lat": 32.733333,
            "lon": 130.766667
        },
        {
            "name": "あがんなっせ",
            "desc": "菊陽町にある、リラックスエリアが充実した大型スパリゾート。",
            "pref": "熊本県",
            "lat": 32.866667,
            "lon": 130.733333
        },
        {
            "name": "つる乃湯 八代店",
            "desc": "八代市にあるスーパー銭湯。低料金で多彩なお風呂を楽しめる。",
            "pref": "熊本県",
            "lat": 32.500000,
            "lon": 130.600000
        },
        {
            "name": "鴛野温泉 はなまるの湯",
            "desc": "大分市にある、高濃度炭酸泉や露天風呂があるスーパー銭湯。",
            "pref": "大分県",
            "lat": 33.200000,
            "lon": 131.600000
        },
        {
            "name": "明野アサヒ温泉",
            "desc": "大分市にある、植物性モール泉の天然温泉が楽しめる施設。",
            "pref": "大分県",
            "lat": 33.233333,
            "lon": 131.650000
        },
        {
            "name": "やまなみの湯",
            "desc": "別府市にあるスーパー銭湯。家族風呂やサウナが充実。",
            "pref": "大分県",
            "lat": 33.300000,
            "lon": 131.483333
        },
        {
            "name": "極楽湯 宮崎店",
            "desc": "宮崎市にある店舗。露天風呂や日替わり湯が人気。",
            "pref": "宮崎県",
            "lat": 31.916667,
            "lon": 131.416667
        },
        {
            "name": "スパぱうぱう",
            "desc": "ホテルや映画館がある複合施設内にある、都城市のサウナ・大浴場。",
            "pref": "宮崎県",
            "lat": 31.716667,
            "lon": 131.066667
        },
        {
            "name": "青井岳温泉",
            "desc": "とろみのある湯が特徴の、自然に囲まれた温泉施設。",
            "pref": "宮崎県",
            "lat": 31.833333,
            "lon": 131.250000
        },
        {
            "name": "一本桜温泉センター",
            "desc": "鹿児島市街を見下ろす高台にある、地元で人気の温泉銭湯。",
            "pref": "鹿児島県",
            "lat": 31.566667,
            "lon": 130.516667
        },
        {
            "name": "温泉 お乃湯",
            "desc": "鹿児島市にある、源泉かけ流しの美肌の湯。",
            "pref": "鹿児島県",
            "lat": 31.533333,
            "lon": 130.500000
        },
        {
            "name": "芦刈温泉",
            "desc": "鹿児島市にある、リーズナブルな価格でサウナや露天風呂が楽しめる公衆浴場。",
            "pref": "鹿児島県",
            "lat": 31.583333,
            "lon": 130.533333
        },
        {
            "name": "浦添の湯",
            "desc": "浦添市にある、スポーツクラブ併設の露天風呂やサウナがある施設。",
            "pref": "沖縄県",
            "lat": 26.241667,
            "lon": 127.716667
        },
        {
            "name": "天然温泉 アロマ",
            "desc": "宜野湾市にある、日本庭園風の露天風呂がある天然温泉。",
            "pref": "沖縄県",
            "lat": 26.275000,
            "lon": 127.750000
        },
        {
            "name": "りっかりっか湯",
            "desc": "那覇市中心部（国際通り近く）にある、アクセス便利な天然温泉。",
            "pref": "沖縄県",
            "lat": 26.216667,
            "lon": 127.691667
        }
    ]
}