{
    "municipalities": [
        {
            "name": "北海道四季劇場",
            "desc": "劇団四季の専用劇場として建設されたが、現在は「東1丁目劇場施設」として様々な公演が行われている。",
            "pref": "北海道",
            "lat": 43.061944,
            "lon": 141.356389
        },
        {
            "name": "札幌市教育文化会館",
            "desc": "演劇、舞踊、伝統芸能など多岐にわたる舞台芸術が上演される文化施設。",
            "pref": "北海道",
            "lat": 43.058056,
            "lon": 141.338056
        },
        {
            "name": "弘前市民会館",
            "desc": "（コンサートホール枠で出したが、演劇も盛ん）",
            "pref": "青森県",
            "lat": 40.605556,
            "lon": 140.463333
        },
        {
            "name": "青森県立美術館（アレコホール）",
            "desc": "シャガールの巨大背景画「アレコ」があり、演劇やコンサートが行われるユニークな空間。",
            "pref": "青森県",
            "lat": 40.803889,
            "lon": 140.732778
        },
        {
            "name": "八戸市公会堂",
            "desc": "八戸市の文化芸術の拠点。演劇や伝統芸能の公演が行われる。",
            "pref": "青森県",
            "lat": 40.509722,
            "lon": 141.488333
        },
        {
            "name": "盛岡劇場",
            "desc": "「もりげき」の愛称で親しまれる、演劇活動の拠点。河南地区にある。",
            "pref": "岩手県",
            "lat": 39.696667,
            "lon": 141.159444
        },
        {
            "name": "北上市文化交流センター さくらホール",
            "desc": "大ホール、中ホール、小ホールを備え、市民による演劇活動も盛ん。",
            "pref": "岩手県",
            "lat": 39.296111,
            "lon": 141.107778
        },
        {
            "name": "仙台電力ホール",
            "desc": "仙台市中心部にあるホール。演劇、落語、コンサートなど幅広く利用される。",
            "pref": "宮城県",
            "lat": 38.262500,
            "lon": 140.873611
        },
        {
            "name": "エル・パーク仙台",
            "desc": "141ビル（三越）内にある施設。スタジオホールでは演劇公演が多く行われる。",
            "pref": "宮城県",
            "lat": 38.265278,
            "lon": 140.871389
        },
        {
            "name": "康楽館",
            "desc": "小坂町にある日本最古級の芝居小屋。重要文化財で、常打芝居が見られる。",
            "pref": "秋田県",
            "lat": 40.331389,
            "lon": 140.745556
        },
        {
            "name": "わらび劇場",
            "desc": "劇団わらび座の本拠地。オリジナルミュージカルを年間通じて上演。",
            "pref": "秋田県",
            "lat": 39.596111,
            "lon": 140.605278
        },
        {
            "name": "シベールアリーナ",
            "desc": "井上ひさしの蔵書を収めた「遅筆堂文庫」に併設された劇場。",
            "pref": "山形県",
            "lat": 38.216667,
            "lon": 140.291667
        },
        {
            "name": "山形市民会館",
            "desc": "山形駅近くにある歴史ある会館。演劇や舞踊の発表の場。",
            "pref": "山形県",
            "lat": 38.246667,
            "lon": 140.331111
        },
        {
            "name": "福島県文化センター",
            "desc": "福島市の文化ゾーンにある。演劇や伝統芸能の公演が行われる。",
            "pref": "福島県",
            "lat": 37.773333,
            "lon": 140.473889
        },
        {
            "name": "喜多方プラザ文化センター",
            "desc": "喜多方市にある文化施設。オペラや演劇の自主事業に定評がある。",
            "pref": "福島県",
            "lat": 37.649444,
            "lon": 139.866667
        },
        {
            "name": "水戸芸術館（ACM劇場）",
            "desc": "3層のバルコニー席を持つ円形劇場。演劇公演を中心に質の高い作品を上演。",
            "pref": "茨城県",
            "lat": 36.379722,
            "lon": 140.463889
        },
        {
            "name": "小美玉市四季文化館（みの～れ）",
            "desc": "住民参加型の演劇活動が非常に盛んな文化施設。",
            "pref": "茨城県",
            "lat": 36.216667,
            "lon": 140.316667
        },
        {
            "name": "那須野が原ハーモニーホール",
            "desc": "円形の小ホールは演劇に適した空間。",
            "pref": "栃木県",
            "lat": 36.852500,
            "lon": 140.016667
        },
        {
            "name": "日光市今市文化会館",
            "desc": "日光市の文化拠点。市民演劇や伝統芸能が行われる。",
            "pref": "栃木県",
            "lat": 36.721667,
            "lon": 139.691667
        },
        {
            "name": "高崎芸術劇場（スタジオシアター）",
            "desc": "可動式の客席を持ち、演劇やダンスなど多様な舞台芸術に対応。",
            "pref": "群馬県",
            "lat": 36.320833,
            "lon": 139.016667
        },
        {
            "name": "ながめ余興場",
            "desc": "大正時代に建てられた木造2階建ての芝居小屋。ながめ公園内にある。",
            "pref": "群馬県",
            "lat": 36.433333,
            "lon": 139.283333
        },
        {
            "name": "彩の国さいたま芸術劇場",
            "desc": "蜷川幸雄氏が芸術監督を務めたことで知られる、演劇・ダンスの世界的拠点。",
            "pref": "埼玉県",
            "lat": 35.881667,
            "lon": 139.626667
        },
        {
            "name": "川口総合文化センター リリア",
            "desc": "駅直結の利便性と充実した設備。演劇公演も多数。",
            "pref": "埼玉県",
            "lat": 35.803333,
            "lon": 139.716667
        },
        {
            "name": "舞浜アンフィシアター",
            "desc": "東京ディズニーリゾート内にある多目的ホール。シルク・ド・ソレイユなどが上演される。",
            "pref": "千葉県",
            "lat": 35.631667,
            "lon": 139.883333
        },
        {
            "name": "千葉県文化会館",
            "desc": "千葉市の高台にある文化の殿堂。オペラやバレエ、演劇が行われる。",
            "pref": "千葉県",
            "lat": 35.607500,
            "lon": 140.126389
        },
        {
            "name": "歌舞伎座",
            "desc": "歌舞伎専用の劇場。世界で唯一の歌舞伎専門劇場として日本の伝統芸能を発信。",
            "pref": "東京都",
            "lat": 35.669444,
            "lon": 139.767778
        },
        {
            "name": "帝国劇場",
            "desc": "「帝劇」の愛称で親しまれる、日本初の西洋式演劇劇場。ミュージカルの聖地。",
            "pref": "東京都",
            "lat": 35.676667,
            "lon": 139.760000
        },
        {
            "name": "本多劇場",
            "desc": "下北沢にある演劇専用劇場。「演劇の街」のシンボル的存在。",
            "pref": "東京都",
            "lat": 35.661944,
            "lon": 139.667500
        },
        {
            "name": "KAAT神奈川芸術劇場",
            "desc": "創造型劇場として、演劇、ミュージカル、ダンスなどの舞台芸術を制作・発信。",
            "pref": "神奈川県",
            "lat": 35.445000,
            "lon": 139.646111
        },
        {
            "name": "横浜にぎわい座",
            "desc": "落語、漫才、大道芸など大衆芸能の専門館。野毛にある。",
            "pref": "神奈川県",
            "lat": 35.450000,
            "lon": 139.630000
        },
        {
            "name": "りゅーとぴあ（劇場）",
            "desc": "シェイクスピア劇などの上演に適した、円形舞台にもなる劇場。",
            "pref": "新潟県",
            "lat": 37.915278,
            "lon": 139.040278
        },
        {
            "name": "長岡リリックホール",
            "desc": "演劇や舞踊に適したシアターがある。美しい芝生広場に隣接。",
            "pref": "新潟県",
            "lat": 37.456667,
            "lon": 138.830000
        },
        {
            "name": "富山県利賀芸術公園",
            "desc": "世界的な演劇祭「利賀フェスティバル」が開催される、山村にある野外劇場群。",
            "pref": "富山県",
            "lat": 36.425000,
            "lon": 137.025000
        },
        {
            "name": "オーバード・ホール（中ホール）",
            "desc": "2023年に開館した中ホールは、演劇や伝統芸能の上演に適している。",
            "pref": "富山県",
            "lat": 36.702778,
            "lon": 137.214444
        },
        {
            "name": "石川県立能楽堂",
            "desc": "加賀宝生流の能楽が盛んな金沢にある、能楽専用の劇場。",
            "pref": "石川県",
            "lat": 36.562778,
            "lon": 136.661111
        },
        {
            "name": "金沢歌劇座",
            "desc": "金沢市中心部にある多目的ホール。歌舞伎やミュージカル、コンサートが行われる。",
            "pref": "石川県",
            "lat": 36.558333,
            "lon": 136.656944
        },
        {
            "name": "福井市文化会館",
            "desc": "福井市の中心部にあり、市民演劇や伝統芸能の発表の場。",
            "pref": "福井県",
            "lat": 36.065000,
            "lon": 136.221667
        },
        {
            "name": "越前市文化センター",
            "desc": "大ホールは、人形浄瑠璃や演劇などの公演に利用される。",
            "pref": "福井県",
            "lat": 35.905000,
            "lon": 136.166667
        },
        {
            "name": "東京エレクトロン韮崎文化ホール",
            "desc": "韮崎市にある文化ホール。演劇やコンサートが開催される。",
            "pref": "山梨県",
            "lat": 35.713333,
            "lon": 138.450000
        },
        {
            "name": "山梨県立県民文化ホール（小ホール）",
            "desc": "演劇や室内楽に適したホール。",
            "pref": "山梨県",
            "lat": 35.666389,
            "lon": 138.553333
        },
        {
            "name": "まつもと市民芸術館",
            "desc": "伊東豊雄設計。馬蹄形のホールを持ち、オペラや演劇の制作・上演を行う。",
            "pref": "長野県",
            "lat": 36.231944,
            "lon": 137.971389
        },
        {
            "name": "サントミューゼ（上田市交流文化芸術センター）",
            "desc": "美術館と劇場が一体となった施設。演劇やダンスの公演が多い。",
            "pref": "長野県",
            "lat": 36.400000,
            "lon": 138.256667
        },
        {
            "name": "可児市文化創造センター ala",
            "desc": "市民参加型の演劇プロジェクトやワークショップが盛んな、地域劇場のモデルケース。",
            "pref": "岐阜県",
            "lat": 35.426667,
            "lon": 137.061111
        },
        {
            "name": "ぎふ清流文化プラザ（長良川ホール）",
            "desc": "演劇や伝統芸能の上演に適したホール。",
            "pref": "岐阜県",
            "lat": 35.427778,
            "lon": 136.745833
        },
        {
            "name": "SPAC-静岡県舞台芸術センター（静岡芸術劇場）",
            "desc": "グランシップ内にある演劇専用劇場。専属劇団SPACが活動。",
            "pref": "静岡県",
            "lat": 34.985278,
            "lon": 138.412500
        },
        {
            "name": "浜松市浜北文化センター",
            "desc": "市民演劇や伝統芸能の公演が行われる。",
            "pref": "静岡県",
            "lat": 34.796667,
            "lon": 137.783333
        },
        {
            "name": "御園座",
            "desc": "名古屋を代表する劇場。歌舞伎、ミュージカル、演歌公演などが行われる。",
            "pref": "愛知県",
            "lat": 35.168333,
            "lon": 136.896389
        },
        {
            "name": "大須演芸場",
            "desc": "大須商店街にある寄席。落語や漫才など大衆芸能が楽しめる。",
            "pref": "愛知県",
            "lat": 35.160000,
            "lon": 136.900000
        },
        {
            "name": "三重県文化会館（中ホール）",
            "desc": "演劇や舞踊の公演に適したホール。",
            "pref": "三重県",
            "lat": 34.739722,
            "lon": 136.495000
        },
        {
            "name": "伊勢市観光文化会館",
            "desc": "伊勢神宮外宮近くにある文化施設。演劇やコンサートが行われる。",
            "pref": "三重県",
            "lat": 34.488889,
            "lon": 136.705556
        },
        {
            "name": "びわ湖ホール（中ホール・小ホール）",
            "desc": "演劇や室内楽に利用される。湖畔の美しいロケーション。",
            "pref": "滋賀県",
            "lat": 35.006389,
            "lon": 135.875833
        },
        {
            "name": "守山市民ホール",
            "desc": "滋賀県内の主要な文化ホールの一つ。演劇公演も行われる。",
            "pref": "滋賀県",
            "lat": 35.053333,
            "lon": 135.996667
        },
        {
            "name": "南座",
            "desc": "京都・四条大橋の袂にある、日本最古の歴史を持つ劇場。歌舞伎発祥の地。",
            "pref": "京都府",
            "lat": 35.003889,
            "lon": 135.772500
        },
        {
            "name": "京都劇場",
            "desc": "京都駅ビル内にある劇場。劇団四季の公演やコンサートが行われる。",
            "pref": "京都府",
            "lat": 34.985556,
            "lon": 135.758611
        },
        {
            "name": "大阪松竹座",
            "desc": "道頓堀にある洋風建築の劇場。歌舞伎や松竹新喜劇などが上演される。",
            "pref": "大阪府",
            "lat": 34.668611,
            "lon": 135.501389
        },
        {
            "name": "国立文楽劇場",
            "desc": "ユネスコ無形文化遺産・人形浄瑠璃文楽の公演拠点。日本橋にある。",
            "pref": "大阪府",
            "lat": 34.667500,
            "lon": 135.508333
        },
        {
            "name": "なんばグランド花月",
            "desc": "吉本興業のホームグラウンド。漫才、落語、吉本新喜劇が毎日上演される「お笑いの殿堂」。",
            "pref": "大阪府",
            "lat": 34.665278,
            "lon": 135.503889
        },
        {
            "name": "宝塚大劇場",
            "desc": "宝塚歌劇団の本拠地。華麗なレビューやミュージカルが上演される。",
            "pref": "兵庫県",
            "lat": 34.808056,
            "lon": 135.344444
        },
        {
            "name": "兵庫県立芸術文化センター（阪急 中ホール）",
            "desc": "演劇公演に適したホール。関西の演劇シーンを牽引する。",
            "pref": "兵庫県",
            "lat": 34.743333,
            "lon": 135.356111
        },
        {
            "name": "なら100年会館（中ホール）",
            "desc": "演劇や舞踊に適したホール。",
            "pref": "奈良県",
            "lat": 34.681111,
            "lon": 135.818889
        },
        {
            "name": "大和高田さざんかホール",
            "desc": "大和高田市にある文化会館。能楽堂（小ホール）がある。",
            "pref": "奈良県",
            "lat": 34.516667,
            "lon": 135.741667
        },
        {
            "name": "紀南文化会館",
            "desc": "田辺市にある文化会館。演劇やコンサートが行われる。",
            "pref": "和歌山県",
            "lat": 33.728889,
            "lon": 135.376667
        },
        {
            "name": "鳥取県立倉吉未来中心",
            "desc": "倉吉パークスクエア内にある文化施設。演劇やコンサートに対応。",
            "pref": "鳥取県",
            "lat": 35.433333,
            "lon": 133.825000
        },
        {
            "name": "米子市公会堂",
            "desc": "村野藤吾設計の名建築。リニューアルされ、市民の文化活動の場となっている。",
            "pref": "鳥取県",
            "lat": 35.426667,
            "lon": 133.333333
        },
        {
            "name": "島根県民会館（中ホール）",
            "desc": "演劇公演などに利用される。",
            "pref": "島根県",
            "lat": 35.471667,
            "lon": 133.053333
        },
        {
            "name": "出雲市民会館",
            "desc": "出雲市の文化拠点。",
            "pref": "島根県",
            "lat": 35.366667,
            "lon": 132.750000
        },
        {
            "name": "岡山芸術創造劇場 ハレノワ",
            "desc": "2023年開館。大・中・小の劇場を備え、岡山の新しい文化芸術拠点となる。",
            "pref": "岡山県",
            "lat": 34.663333,
            "lon": 133.933333
        },
        {
            "name": "ルネスホール",
            "desc": "旧日本銀行岡山支店をリノベーションした文化施設。小規模なコンサートや演劇に適する。",
            "pref": "岡山県",
            "lat": 34.662222,
            "lon": 133.929167
        },
        {
            "name": "JMSアステールプラザ",
            "desc": "中ホールは能舞台も設置可能。演劇や舞踊の公演が多い。",
            "pref": "広島県",
            "lat": 34.386667,
            "lon": 132.450000
        },
        {
            "name": "広島市佐伯区民文化センター",
            "desc": "地域密着型のホール。市民演劇などが上演される。",
            "pref": "広島県",
            "lat": 34.366667,
            "lon": 132.366667
        },
        {
            "name": "山口情報芸術センター（YCAM）",
            "desc": "メディアアートの展示や、ダンス・演劇などのパフォーミングアーツが行われる。",
            "pref": "山口県",
            "lat": 34.166667,
            "lon": 131.466667
        },
        {
            "name": "ルネッサながと",
            "desc": "長門市にある劇場。香月泰男美術館や伝統芸能伝承館が隣接。",
            "pref": "山口県",
            "lat": 34.366667,
            "lon": 131.183333
        },
        {
            "name": "阿波十郎兵衛屋敷",
            "desc": "阿波人形浄瑠璃を毎日上演している施設。国の重要無形民俗文化財。",
            "pref": "徳島県",
            "lat": 34.103333,
            "lon": 134.555000
        },
        {
            "name": "あわぎんホール（徳島県郷土文化会館）",
            "desc": "（既出だが）演劇や伝統芸能の拠点。",
            "pref": "徳島県",
            "lat": 34.072222,
            "lon": 134.553333
        },
        {
            "name": "旧金毘羅大芝居（金丸座）",
            "desc": "現存する日本最古の芝居小屋。重要文化財。「四国こんぴら歌舞伎大芝居」が有名。",
            "pref": "香川県",
            "lat": 34.185556,
            "lon": 133.820278
        },
        {
            "name": "サンポートホール高松（各種ホール）",
            "desc": "演劇や舞踊の公演が行われる。",
            "pref": "香川県",
            "lat": 34.352222,
            "lon": 134.048333
        },
        {
            "name": "内子座",
            "desc": "大正時代に建てられた木造の芝居小屋。回り舞台や花道があり、現在も公演が行われる。",
            "pref": "愛媛県",
            "lat": 33.553333,
            "lon": 132.650000
        },
        {
            "name": "坊っちゃん劇場",
            "desc": "東温市にある、地域独自の歴史や文化を題材にしたミュージカルを常設上演する劇場。",
            "pref": "愛媛県",
            "lat": 33.805556,
            "lon": 132.866667
        },
        {
            "name": "高知県立美術館（能楽堂）",
            "desc": "美術館内に本格的な能楽堂がある。",
            "pref": "高知県",
            "lat": 33.561667,
            "lon": 133.565000
        },
        {
            "name": "弁天座",
            "desc": "香南市赤岡町にある芝居小屋。地域住民の手で運営されている。",
            "pref": "高知県",
            "lat": 33.541667,
            "lon": 133.683333
        },
        {
            "name": "博多座",
            "desc": "九州最大級の演劇専用劇場。歌舞伎、ミュージカル、商業演劇が月替わりで上演。",
            "pref": "福岡県",
            "lat": 33.595000,
            "lon": 130.406667
        },
        {
            "name": "キャナルシティ劇場",
            "desc": "キャナルシティ博多内にある劇場。劇団四季や話題の舞台が上演される。",
            "pref": "福岡県",
            "lat": 33.589722,
            "lon": 130.411111
        },
        {
            "name": "北九州芸術劇場",
            "desc": "リバーウォーク北九州内にある劇場。演劇制作の拠点として全国的に知られる。",
            "pref": "福岡県",
            "lat": 33.883333,
            "lon": 130.875000
        },
        {
            "name": "佐賀市歴史民俗館（旧古賀銀行）",
            "desc": "レトロな洋館内の空間が、コンサートや演劇の会場として使われることがある。",
            "pref": "佐賀県",
            "lat": 33.251667,
            "lon": 130.305000
        },
        {
            "name": "鹿島市生涯学習センター（エイブル）",
            "desc": "演劇公演などが活発に行われるホール。",
            "pref": "佐賀県",
            "lat": 33.108333,
            "lon": 130.091667
        },
        {
            "name": "とぎつカナリーホール",
            "desc": "音響が良いことで知られるホール。演劇公演もある。",
            "pref": "長崎県",
            "lat": 32.833333,
            "lon": 129.850000
        },
        {
            "name": "八千代座",
            "desc": "明治43年建設の国指定重要文化財の芝居小屋。坂東玉三郎公演などで有名。",
            "pref": "熊本県",
            "lat": 33.011389,
            "lon": 130.687222
        },
        {
            "name": "熊本県立劇場（演劇ホール）",
            "desc": "花道を備えたプロセニアム形式のホール。",
            "pref": "熊本県",
            "lat": 32.798333,
            "lon": 130.726667
        },
        {
            "name": "iichiko総合文化センター（iichiko音の泉ホール）",
            "desc": "室内楽や演劇に適したホール。",
            "pref": "大分県",
            "lat": 33.236667,
            "lon": 131.603333
        },
        {
            "name": "平和市民公園能楽堂",
            "desc": "本格的な能楽堂。能や狂言の公演が行われる。",
            "pref": "大分県",
            "lat": 33.245000,
            "lon": 131.633333
        },
        {
            "name": "メディキット県民文化センター（演劇ホール）",
            "desc": "演劇、舞踊、伝統芸能などに対応したホール。",
            "pref": "宮崎県",
            "lat": 31.928889,
            "lon": 131.423333
        },
        {
            "name": "日向市文化交流センター",
            "desc": "日向市の文化拠点。",
            "pref": "宮崎県",
            "lat": 32.425000,
            "lon": 131.625000
        },
        {
            "name": "鹿児島県民交流センター",
            "desc": "能楽堂や多目的ホールがあり、様々な文化活動が行われる。",
            "pref": "鹿児島県",
            "lat": 31.595000,
            "lon": 130.556667
        },
        {
            "name": "国立劇場おきなわ",
            "desc": "組踊（ユネスコ無形文化遺産）をはじめとする沖縄の伝統芸能を上演・継承する拠点。",
            "pref": "沖縄県",
            "lat": 26.255000,
            "lon": 127.693333
        },
        {
            "name": "テンブスホール",
            "desc": "那覇市国際通りにある、沖縄芸能の発信地。",
            "pref": "沖縄県",
            "lat": 26.215000,
            "lon": 127.691667
        }
    ]
}