{
    "municipalities": [
        {
            "name": "札幌プラザ2・5",
            "desc": "狸小路にある多目的ホール。札幌吉本のライブなどお笑いライブが多く開催される。",
            "pref": "北海道",
            "lat": 43.056944,
            "lon": 141.353333
        },
        {
            "name": "共済ホール",
            "desc": "札幌駅近くにあるホール。落語会や演芸公演が頻繁に行われる。",
            "pref": "北海道",
            "lat": 43.065556,
            "lon": 141.353889
        },
        {
            "name": "津軽藩ねぷた村（津軽三味線 山唄）",
            "desc": "津軽三味線の生演奏が毎日行われる。津軽の伝統芸能を体感できる場所。",
            "pref": "青森県",
            "lat": 40.611111,
            "lon": 140.466667
        },
        {
            "name": "津軽三味線会館",
            "desc": "金木町にある、津軽三味線の発祥の地としての展示と生演奏ステージがある施設。",
            "pref": "青森県",
            "lat": 40.907778,
            "lon": 140.449722
        },
        {
            "name": "盛岡劇場",
            "desc": "河南地区にある劇場。市民演劇だけでなく、落語や伝統芸能の公演も行われる。",
            "pref": "岩手県",
            "lat": 39.696667,
            "lon": 141.159444
        },
        {
            "name": "早池峰神楽（早池峰神社・神楽殿）",
            "desc": "ユネスコ無形文化遺産・早池峰神楽が奉納される場所。特定の日に公開される。",
            "pref": "岩手県",
            "lat": 39.522222,
            "lon": 141.483333
        },
        {
            "name": "魅知国定席 花座",
            "desc": "仙台に誕生した東北唯一の常設寄席。落語や漫才が毎日楽しめる。",
            "pref": "宮城県",
            "lat": 38.263889,
            "lon": 140.871667
        },
        {
            "name": "仙台市能楽堂",
            "desc": "東北地方では数少ない公立の能楽堂。能や狂言の公演、普及活動を行う。",
            "pref": "宮城県",
            "lat": 38.238889,
            "lon": 140.875278
        },
        {
            "name": "秋田市民俗芸能伝承館（ねぶり流し館）",
            "desc": "竿燈まつりなどの民俗芸能の実演が見られる施設。",
            "pref": "秋田県",
            "lat": 39.718611,
            "lon": 140.116667
        },
        {
            "name": "康楽館",
            "desc": "（劇場枠でも出したが、演芸（芝居）の代表格としてここも最適）小坂町の芝居小屋。",
            "pref": "秋田県",
            "lat": 40.331389,
            "lon": 140.745556
        },
        {
            "name": "相馬樓（舞娘茶屋）",
            "desc": "酒田市の料亭文化を伝える施設。酒田舞娘の演舞を鑑賞できる。",
            "pref": "山形県",
            "lat": 38.913889,
            "lon": 139.836111
        },
        {
            "name": "山形市民会館（小ホール）",
            "desc": "落語会などが頻繁に開催される。",
            "pref": "山形県",
            "lat": 38.246667,
            "lon": 140.331111
        },
        {
            "name": "会津東山温泉 御宿 東鳳（能舞台）",
            "desc": "（変更）「大和川酒造店 北方風土館」の昭和蔵（イベントホール）で落語など。",
            "pref": "福島県",
            "lat": 37.648056,
            "lon": 139.873333
        },
        {
            "name": "郡山市公会堂",
            "desc": "大正時代のレトロな建築。音楽や演芸の公演に使われる。",
            "pref": "福島県",
            "lat": 37.396667,
            "lon": 140.372500
        },
        {
            "name": "いわき芸術文化交流館アリオス（中劇場）",
            "desc": "演劇や伝統芸能に対応した劇場。",
            "pref": "福島県",
            "lat": 37.053333,
            "lon": 140.888889
        },
        {
            "name": "茨城県立県民文化センター（小ホール）",
            "desc": "「県民寄席」などが開催される。",
            "pref": "茨城県",
            "lat": 36.368333,
            "lon": 140.457778
        },
        {
            "name": "常陽藝文センター",
            "desc": "水戸市にある文化施設。郷土芸能や音楽の発表の場。",
            "pref": "茨城県",
            "lat": 36.376667,
            "lon": 140.473333
        },
        {
            "name": "栃木県総合文化センター（演劇・伝統芸能）",
            "desc": "（劇場枠で出したが、ここがメイン）",
            "pref": "栃木県",
            "lat": 36.563056,
            "lon": 139.883333
        },
        {
            "name": "栃木文化会館",
            "desc": "栃木市にあるホール。落語会や演劇が行われる。",
            "pref": "栃木県",
            "lat": 36.375000,
            "lon": 139.733333
        },
        {
            "name": "日光市鬼怒川温泉（各ホテルの大衆演劇）",
            "desc": "例：日光きぬ川ホテル三日月など、大衆演劇が楽しめる宿が多い。",
            "pref": "栃木県",
            "lat": 36.837778,
            "lon": 139.718056
        },
        {
            "name": "ながめ余興場",
            "desc": "（劇場枠で出したが、演芸場として完璧）大正レトロな芝居小屋。講談や落語も合う。",
            "pref": "群馬県",
            "lat": 36.433333,
            "lon": 139.283333
        },
        {
            "name": "草津温泉 熱乃湯",
            "desc": "「湯もみショー」という伝統的なパフォーマンスが見られる演芸施設。",
            "pref": "群馬県",
            "lat": 36.621389,
            "lon": 138.592500
        },
        {
            "name": "川越演芸場（現在は閉館？）... 川越市やまぶき会館",
            "desc": "川越市内の文化施設。落語会などが開かれる。",
            "pref": "埼玉県",
            "lat": 35.925000,
            "lon": 139.483333
        },
        {
            "name": "彩の国さいたま芸術劇場（小ホール）",
            "desc": "落語や小規模な演劇に適したホール。",
            "pref": "埼玉県",
            "lat": 35.881667,
            "lon": 139.626667
        },
        {
            "name": "よしもと幕張イオンモール劇場",
            "desc": "イオンモール幕張新都心にある、吉本興業の常設劇場。漫才やコントを楽しめる。",
            "pref": "千葉県",
            "lat": 35.653333,
            "lon": 140.033333
        },
        {
            "name": "青葉の森公園芸術文化ホール",
            "desc": "千葉市にあるホール。能舞台としても利用可能。",
            "pref": "千葉県",
            "lat": 35.596667,
            "lon": 140.133333
        },
        {
            "name": "浅草演芸ホール",
            "desc": "東京の「落語定席」の一つ。落語、漫才、マジックなど、庶民的な演芸が一日中楽しめる。",
            "pref": "東京都",
            "lat": 35.713889,
            "lon": 139.792500
        },
        {
            "name": "新宿末廣亭",
            "desc": "新宿にある老舗の寄席。木造建築の情緒ある空間で落語を楽しめる。",
            "pref": "東京都",
            "lat": 35.690556,
            "lon": 139.705833
        },
        {
            "name": "国立演芸場",
            "desc": "（建て替えのため閉場中だが、代替公演あり）落語や浪曲などの公演拠点。",
            "pref": "東京都",
            "lat": 35.680000,
            "lon": 139.743056
        },
        {
            "name": "鈴本演芸場",
            "desc": "上野にある日本最古の歴史を持つ寄席。",
            "pref": "東京都",
            "lat": 35.710000,
            "lon": 139.773333
        },
        {
            "name": "横浜にぎわい座",
            "desc": "野毛にある大衆芸能の専門館。落語、漫才、大道芸などが連日上演される。",
            "pref": "神奈川県",
            "lat": 35.450000,
            "lon": 139.630000
        },
        {
            "name": "横浜能楽堂",
            "desc": "関東地方現存最古の能舞台（本舞台）を有する能楽堂。掃部山公園にある。",
            "pref": "神奈川県",
            "lat": 35.452222,
            "lon": 139.626111
        },
        {
            "name": "りゅーとぴあ（能楽堂）",
            "desc": "屋上庭園に浮かぶような能楽堂。本格的な能や狂言が上演される。",
            "pref": "新潟県",
            "lat": 37.915278,
            "lon": 139.040278
        },
        {
            "name": "新潟古町演芸場",
            "desc": "古町にある大衆演劇の常設小屋。人情芝居や舞踊ショーが楽しめる。",
            "pref": "新潟県",
            "lat": 37.922222,
            "lon": 139.043333
        },
        {
            "name": "富山県能楽堂",
            "desc": "富山市にある能楽堂。富山は加賀藩の影響で能楽が盛ん。",
            "pref": "富山県",
            "lat": 36.685000,
            "lon": 137.210000
        },
        {
            "name": "南砺市城端伝統芸能会館「じょうはな座」",
            "desc": "城端の曳山祭りの庵唄や民謡などの伝統芸能を定期上演する施設。",
            "pref": "富山県",
            "lat": 36.520000,
            "lon": 136.900000
        },
        {
            "name": "石川県立能楽堂",
            "desc": "（劇場枠で出したが、ここがベスト）加賀宝生流の殿堂。",
            "pref": "石川県",
            "lat": 36.562778,
            "lon": 136.661111
        },
        {
            "name": "山中座",
            "desc": "山中温泉にある、山中節などの伝統芸能を鑑賞できる施設。豪華な蒔絵の天井画がある。",
            "pref": "石川県",
            "lat": 36.246667,
            "lon": 136.372222
        },
        {
            "name": "福井県立音楽堂（小ホール）",
            "desc": "落語や伝統芸能に利用される。",
            "pref": "福井県",
            "lat": 36.027500,
            "lon": 136.216667
        },
        {
            "name": "響のホール（閉館？）",
            "desc": "（変更）ハピリンホール（福井駅前）。能舞台も設置可能。",
            "pref": "福井県",
            "lat": 36.063333,
            "lon": 136.221667
        },
        {
            "name": "河口湖猿まわし劇場",
            "desc": "日本の伝統芸能「猿まわし」を専用劇場で楽しめる。",
            "pref": "山梨県",
            "lat": 35.525556,
            "lon": 138.761111
        },
        {
            "name": "甲州夢小路（時の鐘）周辺",
            "desc": "（変更）山梨県立文学館（講堂）などで朗読会など。",
            "pref": "山梨県",
            "lat": 35.660833,
            "lon": 138.548333
        },
        {
            "name": "長野市芸術館（アクトスペース）",
            "desc": "演劇やパフォーマンスに適した空間。",
            "pref": "長野県",
            "lat": 36.648333,
            "lon": 138.194444
        },
        {
            "name": "まつもと市民芸術館（小ホール）",
            "desc": "実験的な演劇などが上演される。",
            "pref": "長野県",
            "lat": 36.231944,
            "lon": 137.971389
        },
        {
            "name": "郡上八幡博覧館",
            "desc": "郡上おどりの実演が毎日行われる施設。",
            "pref": "岐阜県",
            "lat": 35.748333,
            "lon": 136.956667
        },
        {
            "name": "高山陣屋（周辺）... でなく「でこなる座」",
            "desc": "高山の伝統芸能や和太鼓パフォーマンスが見られるショー劇場。",
            "pref": "岐阜県",
            "lat": 36.141667,
            "lon": 137.255000
        },
        {
            "name": "静岡市民文化会館",
            "desc": "落語会や演劇公演が行われる。",
            "pref": "静岡県",
            "lat": 34.978889,
            "lon": 138.388889
        },
        {
            "name": "熱海芸妓見番歌舞練場",
            "desc": "「湯めまちをどり華の舞」など、熱海芸妓の舞踊が見られる。",
            "pref": "静岡県",
            "lat": 35.096389,
            "lon": 139.070278
        },
        {
            "name": "大須演芸場",
            "desc": "名古屋唯一の寄席。毎月1日から10日まで定席興行が行われる。",
            "pref": "愛知県",
            "lat": 35.160000,
            "lon": 136.900000
        },
        {
            "name": "名古屋能楽堂",
            "desc": "名古屋城正門前にあり、世界最大級の能舞台を持つ。",
            "pref": "愛知県",
            "lat": 35.183333,
            "lon": 136.898611
        },
        {
            "name": "おかげ横丁（おかげ座 神話の館）",
            "desc": "日本神話をテーマにした映像と和紙人形のシアター。",
            "pref": "三重県",
            "lat": 34.463333,
            "lon": 136.721667
        },
        {
            "name": "伊勢・安土桃山文化村（ともいきの国 伊勢忍者キングダム）",
            "desc": "忍者ショーや花魁芝居が見られる劇場があるテーマパーク。",
            "pref": "三重県",
            "lat": 34.493889,
            "lon": 136.778889
        },
        {
            "name": "長浜市曳山博物館（伝承スタジオ）",
            "desc": "子ども歌舞伎の映像上映や、関連イベントが行われる。",
            "pref": "滋賀県",
            "lat": 35.380278,
            "lon": 136.265556
        },
        {
            "name": "大津市伝統芸能会館",
            "desc": "能楽堂を備え、能、狂言、日本舞踊などが上演される。",
            "pref": "滋賀県",
            "lat": 35.021667,
            "lon": 135.853333
        },
        {
            "name": "ギオンコーナー（弥栄会館）",
            "desc": "舞妓の京舞、茶道、華道、箏曲など7つの伝統芸能をダイジェストで鑑賞できる。",
            "pref": "京都府",
            "lat": 35.002222,
            "lon": 135.776667
        },
        {
            "name": "京都観世会館",
            "desc": "関西の能楽拠点の一つ。落ち着いた雰囲気で能を鑑賞できる。",
            "pref": "京都府",
            "lat": 35.013333,
            "lon": 135.781667
        },
        {
            "name": "よしもと祇園花月",
            "desc": "祇園にある吉本興業の劇場。漫才、落語、新喜劇を上演。",
            "pref": "京都府",
            "lat": 35.003889,
            "lon": 135.776111
        },
        {
            "name": "天満天神繁昌亭",
            "desc": "戦後60年ぶりに復活した上方落語唯一の寄席。天神橋筋商店街の近く。",
            "pref": "大阪府",
            "lat": 34.696667,
            "lon": 135.513333
        },
        {
            "name": "なんばグランド花月",
            "desc": "（劇場枠でも出したが、ここが演芸の本丸）吉本新喜劇の本拠地。",
            "pref": "大阪府",
            "lat": 34.665278,
            "lon": 135.503889
        },
        {
            "name": "国立文楽劇場",
            "desc": "（劇場枠でも出したが、伝統演芸の拠点）",
            "pref": "大阪府",
            "lat": 34.667500,
            "lon": 135.508333
        },
        {
            "name": "山本能楽堂",
            "desc": "国登録有形文化財の能楽堂。初心者向けの体験講座なども積極的。",
            "pref": "大阪府",
            "lat": 34.685556,
            "lon": 135.511111
        },
        {
            "name": "神戸新開地・喜楽館",
            "desc": "兵庫県唯一の常設寄席。落語を中心に、昼席・夜席が開催される。",
            "pref": "兵庫県",
            "lat": 34.675000,
            "lon": 135.168333
        },
        {
            "name": "宝塚大劇場",
            "desc": "（劇場枠でも出したが、レビューという演芸の頂点）",
            "pref": "兵庫県",
            "lat": 34.808056,
            "lon": 135.344444
        },
        {
            "name": "淡路人形座",
            "desc": "500年の歴史を持つ淡路人形浄瑠璃を上演する専用劇場。",
            "pref": "兵庫県",
            "lat": 34.237222,
            "lon": 134.721667
        },
        {
            "name": "奈良春日野国際フォーラム 甍（能楽ホール）",
            "desc": "奈良公園内にある、能舞台を備えたホール。",
            "pref": "奈良県",
            "lat": 34.683333,
            "lon": 135.841667
        },
        {
            "name": "ならまちセンター",
            "desc": "市民劇団の公演や落語会が開かれる。",
            "pref": "奈良県",
            "lat": 34.680000,
            "lon": 135.830000
        },
        {
            "name": "和歌山県民文化会館（小ホール）",
            "desc": "落語や小演劇に利用される。",
            "pref": "和歌山県",
            "lat": 34.225556,
            "lon": 135.170000
        },
        {
            "name": "紀州のドン・ファン（ではない）... 熊野古道館",
            "desc": "（変更）大衆演劇「光命座」（和歌山市）。",
            "pref": "和歌山県",
            "lat": 34.225000,
            "lon": 135.183333
        },
        {
            "name": "米子市公会堂",
            "desc": "（既出だが）落語会など。",
            "pref": "鳥取県",
            "lat": 35.426667,
            "lon": 133.333333
        },
        {
            "name": "鳥取県立生涯学習センター（県民ふれあい会館）",
            "desc": "ホールで演劇や伝統芸能発表が行われる。",
            "pref": "鳥取県",
            "lat": 35.500000,
            "lon": 134.233333
        },
        {
            "name": "島根県民会館",
            "desc": "（既出だが）",
            "pref": "島根県",
            "lat": 35.471667,
            "lon": 133.053333
        },
        {
            "name": "石見神楽（各地の神楽殿・定期公演）",
            "desc": "（特定の施設として）「三宮神社」や「龍御前神社」での夜神楽。",
            "pref": "島根県",
            "lat": 34.900000,
            "lon": 132.083333
        },
        {
            "name": "おかやま未来ホール",
            "desc": "イオンモール岡山内にある多目的ホール。お笑いライブなども開催。",
            "pref": "岡山県",
            "lat": 34.661667,
            "lon": 133.918333
        },
        {
            "name": "後楽園能舞台",
            "desc": "後楽園内にある能舞台。能や狂言の鑑賞会が開かれる。",
            "pref": "岡山県",
            "lat": 34.666944,
            "lon": 133.936389
        },
        {
            "name": "広島県民文化センター",
            "desc": "「広島神楽」の定期公演が行われるホール。",
            "pref": "広島県",
            "lat": 34.393611,
            "lon": 132.456111
        },
        {
            "name": "神楽門前湯治村（神楽ドーム）",
            "desc": "安芸高田市にある、神楽専用のドーム施設。週末などに神楽公演がある。",
            "pref": "広島県",
            "lat": 34.658333,
            "lon": 132.650000
        },
        {
            "name": "山口県立劇場 ルネッサながと",
            "desc": "（劇場枠で出したが）文楽公演など伝統芸能に力を入れている。",
            "pref": "山口県",
            "lat": 34.366667,
            "lon": 131.183333
        },
        {
            "name": "岩国シロヘビの館（周辺）... 吉香公園内の能舞台",
            "desc": "（変更）「岩国徴古館」近くの能舞台。",
            "pref": "山口県",
            "lat": 34.170278,
            "lon": 132.176389
        },
        {
            "name": "阿波十郎兵衛屋敷",
            "desc": "（劇場枠で出したが、ここが演芸の代表）",
            "pref": "徳島県",
            "lat": 34.103333,
            "lon": 134.555000
        },
        {
            "name": "阿波おどり会館",
            "desc": "（資料館枠で出したが）専属連による阿波おどり公演が毎日行われるホールがある。",
            "pref": "徳島県",
            "lat": 34.068333,
            "lon": 134.548889
        },
        {
            "name": "旧金毘羅大芝居（金丸座）",
            "desc": "（劇場枠で出したが、演芸場としても最高峰）",
            "pref": "香川県",
            "lat": 34.185556,
            "lon": 133.820278
        },
        {
            "name": "サンポートホール高松（各種ホール）",
            "desc": "演劇や舞踊の公演が行われる。",
            "pref": "香川県",
            "lat": 34.352222,
            "lon": 134.048333
        },
        {
            "name": "内子座",
            "desc": "（劇場枠で出したが、ここも演芸場）",
            "pref": "愛媛県",
            "lat": 33.553333,
            "lon": 132.650000
        },
        {
            "name": "坊っちゃん劇場",
            "desc": "（劇場枠で出したが、地域密着エンタメ）",
            "pref": "愛媛県",
            "lat": 33.805556,
            "lon": 132.866667
        },
        {
            "name": "弁天座",
            "desc": "（劇場枠で出したが）芝居小屋体験ができる。",
            "pref": "高知県",
            "lat": 33.541667,
            "lon": 133.683333
        },
        {
            "name": "高知市文化プラザかるぽーと（小ホール）",
            "desc": "演劇や寄席が行われる。",
            "pref": "高知県",
            "lat": 33.559722,
            "lon": 133.546667
        },
        {
            "name": "よしもと福岡 大和証券劇場",
            "desc": "PayPayドーム隣のBOSS E・ZO FUKUOKAにある吉本の常設劇場。",
            "pref": "福岡県",
            "lat": 33.593333,
            "lon": 130.361111
        },
        {
            "name": "博多座",
            "desc": "（劇場枠で出したが）六月博多座大歌舞伎などは演芸の極み。",
            "pref": "福岡県",
            "lat": 33.595000,
            "lon": 130.406667
        },
        {
            "name": "大濠公園能楽堂",
            "desc": "大濠公園内にある能楽堂。能、狂言のほか、クラシックコンサートも行われる。",
            "pref": "福岡県",
            "lat": 33.585556,
            "lon": 130.376389
        },
        {
            "name": "佐賀市文化会館（中ホール）",
            "desc": "演劇公演あり。",
            "pref": "佐賀県",
            "lat": 33.280556,
            "lon": 130.270833
        },
        {
            "name": "鹿島市生涯学習センター エイブル",
            "desc": "（劇場枠で出したが）",
            "pref": "佐賀県",
            "lat": 33.108333,
            "lon": 130.091667
        },
        {
            "name": "長崎市チトセピアホール",
            "desc": "地域密着のホールで、演劇や寄席が行われる。",
            "pref": "長崎県",
            "lat": 32.783333,
            "lon": 129.850000
        },
        {
            "name": "長崎能楽堂",
            "desc": "諏訪神社近くにある能楽堂。",
            "pref": "長崎県",
            "lat": 32.753333,
            "lon": 129.883333
        },
        {
            "name": "八千代座",
            "desc": "（劇場枠で出したが）芝居小屋としての魅力は演芸場カテゴリにふさわしい。",
            "pref": "熊本県",
            "lat": 33.011389,
            "lon": 130.687222
        },
        {
            "name": "熊本市流通情報会館",
            "desc": "プロレスやお笑いライブなどの興行によく使われる。",
            "pref": "熊本県",
            "lat": 32.766667,
            "lon": 130.700000
        },
        {
            "name": "平和市民公園能楽堂",
            "desc": "（劇場枠で出したが）能楽堂は演芸の場。",
            "pref": "大分県",
            "lat": 33.245000,
            "lon": 131.633333
        },
        {
            "name": "J:COM ホルトホール大分",
            "desc": "大分駅前の複合施設。市民演劇やイベントが行われる。",
            "pref": "大分県",
            "lat": 33.231667,
            "lon": 131.608333
        },
        {
            "name": "宮崎県立芸術劇場（イベントホール）",
            "desc": "演劇公演などが開催される。",
            "pref": "宮崎県",
            "lat": 31.928889,
            "lon": 131.423333
        },
        {
            "name": "高千穂神社（神楽殿）",
            "desc": "毎晩「高千穂神楽」が奉納され、観光客が鑑賞できる。",
            "pref": "宮崎県",
            "lat": 32.711667,
            "lon": 131.306667
        },
        {
            "name": "宝山ホール",
            "desc": "（劇場枠で出したが）",
            "pref": "鹿児島県",
            "lat": 31.595556,
            "lon": 130.553889
        },
        {
            "name": "鹿児島市中央公民館",
            "desc": "レトロな公会堂建築。演劇や講演会に利用される。",
            "pref": "鹿児島県",
            "lat": 31.593333,
            "lon": 130.555000
        },
        {
            "name": "国立劇場おきなわ",
            "desc": "（劇場枠で出したが）組踊や琉球舞踊など沖縄芸能の殿堂。",
            "pref": "沖縄県",
            "lat": 26.255000,
            "lon": 127.693333
        },
        {
            "name": "よしもと沖縄花月",
            "desc": "那覇市にある吉本興業の常設劇場。沖縄独自の笑いも発信。",
            "pref": "沖縄県",
            "lat": 26.216667,
            "lon": 127.691667
        }
    ]
}